title,release_year,locations,fun_facts,production_company,distributor,director,writer,actor_1,actor_2,actor_3,state,city,point,supervisor_district,data_loaded_at,analysis_neighborhood,longitude,data_as_of,latitude
A Taiwanese Tale of Two Cities,2018,Pier 7,,Envision Productions Inc.,Netflix,Tien-Lun Yeh,"Ling-Hui Chen, Nancy Chen, Chih-Chi Fan, Chia-Hui Lin",Tammy Cheng,Peggy Tseng,Shen-Hao Wen,CA,San Francisco,POINT (-122.3956409 37.7993521),3,2026-02-20T16:44:43.000,Financial District/South Beach,-122.3956409,2026-02-20T16:37:46.000,37.7993521
Chance- Season 1 ep106,2016,Montgomery between Pacific and Broadway,,TVM Productions,HULU,Sara Gran,Dan Attias,Hugh Laurie,Gretchen Mol,Ethan Suplee,CA,San Francisco,POINT (-122.4040634 37.7981354),3,2026-02-20T16:44:43.000,North Beach,-122.4040634,2026-02-20T16:37:46.000,37.7981354
On the Road,2012,Sacramento & Montgomery Streets,,SPAD Films,IFC Films & Sundance Selects,Walter Salles,Jack Kerouac & Jose Rivera,Garrett Hedlund,Viggo Mortenson,,CA,San Francisco,POINT (-122.4029987 37.7937951),3,2026-02-20T16:44:43.000,Chinatown,-122.4029987,2026-02-20T16:37:46.000,37.7937951
Big Eyes,2014,Palace of Fine Arts,,Blink & Wink Productions,Weinstein Company,Tim Burton,Scott Alexander,Amy Adams,Krysten Ritter,Christoph Waltz,CA,San Francisco,POINT (-122.4484231 37.8029308),2,2026-02-20T16:44:43.000,Marina,-122.4484231,2026-02-20T16:37:46.000,37.8029308
Vegas in Space,1992,Corona Heights Park,,Troma Entertainment,MCA/Universal Home Video,Phillip R. Ford,Doris Fish,Doris Fish,Miss X,Ginger Quest,CA,San Francisco,POINT (-122.4385796 37.7653137),8,2026-02-20T16:44:43.000,Castro/Upper Market,-122.4385796,2026-02-20T16:37:46.000,37.7653137
Chance Season 2,2017,Haight St at Ashbury St,,TVM Productions Inc.,Hulu,Rozann Dawson,Alexandra Cunningham,Hugh Laurie,Greta Lee,Ethan Suplee,CA,San Francisco,POINT (-122.4469681 37.7700202),5,2026-02-20T16:44:43.000,Haight Ashbury,-122.4469681,2026-02-20T16:37:46.000,37.7700202
A Jitney Elopement,1915,Golden Gate Park,"During San Francisco's Gold Rush era, the Park was part of an area designated as the ""Great Sand Waste"".",The Essanay Film Manufacturing Company,General Film Company,Charles Chaplin,Charles Chaplin,Charles Chaplin,Edna Purviance,,CA,San Francisco,POINT (-122.482977 37.7689203),4,2026-02-20T16:44:43.000,Golden Gate Park,-122.482977,2026-02-20T16:37:46.000,37.7689203
Terminator - Genisys,2015,16th and Utah,"Helicopter flies over Utah St. from 16th, rises up before freeway",T5 Productions LLC,Paramount Pictures,Alan Taylor,James Cameron,Arnold Schwarzenegger,Jason Clarke,,CA,San Francisco,POINT (-122.4065727 37.7658572),6,2026-02-20T16:44:43.000,Mission,-122.4065727,2026-02-20T16:37:46.000,37.7658572
Down Periscope,1996,,,Twentieth Century Fox Film Corp.,Twentieth Century Fox Film Corp.,David S. Ward,Hugh Wilson,Kelsey Grammar,Lauren Holly,,CA,San Francisco,,,2026-02-20T16:44:43.000,,,2026-02-20T16:37:46.000,
Looking Season 2 ep 209,2015,"Mission Arts Center, 2450 Harrison Street",,"Mission Street Productions, LLC",HBO,Andrew Haigh,Michael Lannan,Jonathan Groff,Frankie Alvarez,Murray Bartlett,CA,San Francisco,POINT (-122.4126175 37.758168),9,2026-02-20T16:44:43.000,Mission,-122.4126175,2026-02-20T16:37:46.000,37.758168
Chan is Missing,1982,"Li Po (916 Grant Avenue at Washington, Chinatown)",,New Yorker Films,New Yorker Films,Wayne Wang,Wayne Wang,Wood Moy,Marc Hayashi,Lauren Chew,CA,San Francisco,POINT (-122.4064344 37.7954238),3,2026-02-20T16:44:43.000,Chinatown,-122.4064344,2026-02-20T16:37:46.000,37.7954238
Terminator - Genisys,2015,Pine St. between Market and Montgomery,,T5 Productions LLC,Paramount Pictures,Alan Taylor,James Cameron,Arnold Schwarzenegger,Jason Clarke,,CA,San Francisco,POINT (-122.4012639 37.78825),6,2026-02-20T16:44:43.000,Financial District/South Beach,-122.4012639,2026-02-20T16:37:46.000,37.78825
Groove,2000,435 23rd Street at Illinois,,415 Productions,Sony Pictures Classics,Greg Harrison,Greg Harrison,Chris Ferreira,Elizabeth Sun,,CA,San Francisco,POINT (-122.3845135 37.755198),10,2026-02-20T16:44:43.000,Potrero Hill,-122.3845135,2026-02-20T16:37:46.000,37.755198
Days of Wine and Roses,1962,,,Warner Bros. Pictures,Warner Bros. Pictures,Blake Edwards,JP Miller,Jack Lemmon,Lee Remick,Charles Bickford,CA,San Francisco,,,2026-02-20T16:44:43.000,,,2026-02-20T16:37:46.000,
Bicentennial Man,1999,Golden Gate Bridge,"With 23 miles of ladders and 300,000 rivets in each tower, the Golden Gate Bridge was the world's longest span when it opened in 1937.",1492 Pictures,Buena Vista Pictures,Chris Columbus,Nicholas Kazan,Robin Williams,,,CA,San Francisco,POINT (-122.4785598 37.8199109),,2026-02-20T16:44:43.000,,-122.4785598,2026-02-20T16:37:46.000,37.8199109
Vegas in Space,1992,Project Artaud (Florida Street),,Troma Entertainment,MCA/Universal Home Video,Phillip R. Ford,Doris Fish,Doris Fish,Miss X,Ginger Quest,CA,San Francisco,POINT (-122.4120813 37.7635734),9,2026-02-20T16:44:43.000,Mission,-122.4120813,2026-02-20T16:37:46.000,37.7635734
Chance Season 2,2017,Haight between Central and Ashbury St,,TVM Productions Inc.,Hulu,Rozann Dawson,Alexandra Cunningham,Hugh Laurie,Greta Lee,Ethan Suplee,CA,San Francisco,POINT (-122.4453615 37.7702175),5,2026-02-20T16:44:43.000,Haight Ashbury,-122.4453615,2026-02-20T16:37:46.000,37.7702175
The Towering Inferno,1974,"Hyatt Regency Hotel (5 Embarcadero Center, Financial District)",,Irwin Allen Productions,Twentieth Century - Fox,John Guillermin,Stirling Silliphant,Steve McQueen,Paul Newman,William Holden,CA,San Francisco,POINT (-122.3956663 37.7942169),3,2026-02-20T16:44:43.000,Financial District/South Beach,-122.3956663,2026-02-20T16:37:46.000,37.7942169
Doctor Dolittle,1998,2100 Green Street,,Twentieth Century Fox Film Cooperation,Twentieth Century Fox Film Cooperation,Betty Thomas,Nat Mauldin,Eddie Murphy,Ossie Davis,,CA,San Francisco,POINT (-122.4339534 37.7965699),2,2026-02-20T16:44:43.000,Marina,-122.4339534,2026-02-20T16:37:46.000,37.7965699
The Diary of a Teenage Girl,2015,Tank Hill Park,,"Diary the Movie, LLC",Sony Pictures Classics,Marielle Heller,Marielle Heller,Alexander Skarsgard,Kristen Wiig,Christopher Meloni,CA,San Francisco,POINT (-122.447707 37.7599053),8,2026-02-20T16:44:43.000,Inner Sunset,-122.447707,2026-02-20T16:37:46.000,37.7599053
The Matrix Resurrections,2021,155 California,,"Adobe Pictures, Inc.",Warner Brothers,Lana Wachowski,"Lana Wachowski, David Mitchell, Aleksander Hemon",Keanu Reeves,Keanu Reeves,Neil Patrick Harris,CA,San Francisco,POINT (-122.3984911 37.7932242),3,2026-02-20T16:44:43.000,Financial District/South Beach,-122.3984911,2026-02-20T16:37:46.000,37.7932242
Sense8 - Season 2,2016,"The Women's Building, 3543 18th St.","The mural painted outside the building was painted by 7 women artists including Juana Alicia, Miranda Bergman and Meera Desai. The computer lab scene was filmed inside the building.","Unpronounceable Productions, LLC",Netflix,Wachowski Siblings,"J. Michael Straczynski, Wachowiski Siblings",Jamie Clayton,Daryl Hannah,Naveen Andrews,CA,San Francisco,POINT (-122.4227025 37.7614492),9,2026-02-20T16:44:43.000,Mission,-122.4227025,2026-02-20T16:37:46.000,37.7614492
Blue Jasmine,2013,330 Santa Clara Ave.,,Perdido Productions,Sony Pictures Classics,Woody Allen,Woody Allen,Cate Blanchett,Alec Baldwin,Peter Sarsgaard,CA,San Francisco,POINT (-122.4665485 37.7342903),7,2026-02-20T16:44:43.000,West of Twin Peaks,-122.4665485,2026-02-20T16:37:46.000,37.7342903
When a Man Loves a Woman,1994,Buena Vista Café (2765 Hyde Street),,Touchstone Pictures,Buena Vista Pictures,Luis Mandoki,Ronald Bass,Andy Garcia,Meg Ryan,,CA,San Francisco,POINT (-122.4207822 37.8065278),2,2026-02-20T16:44:43.000,Russian Hill,-122.4207822,2026-02-20T16:37:46.000,37.8065278
A Taiwanese Tale of Two Cities,2018,700 Block of Grant Ave.,,Envision Productions Inc.,Netflix,Tien-Lun Yeh,"Ling-Hui Chen, Nancy Chen, Chih-Chi Fan, Chia-Hui Lin",Tammy Cheng,Peggy Tseng,Shen-Hao Wen,CA,San Francisco,POINT (-122.405979 37.793631),3,2026-02-20T16:44:43.000,Chinatown,-122.405979,2026-02-20T16:37:46.000,37.793631
Silicon Valley Season 4,2017,Howard St between 3rd and 4th St.,,"Brown Hill Productions, LLC",HBO,Mike Judge,John Altschuler,Thomas Middleditch,T.J. Miller,Josh Brener,CA,San Francisco,POINT (-122.39484 37.77667),6,2026-02-20T16:44:43.000,Mission Bay,-122.39484,2026-02-20T16:37:46.000,37.77667
Etruscan Smile,2017,San Francisco City Hall,The museum party interiors were shot in the Historic San Francisco City Hall.,"Po Valley Productions, LLC",TBD,Oded Binnun/ Michel Brezis,"Sarah Bellwood, Michal Lali Kagan, Michael McGowan Amital Stern, Jose Luis Sampedro",Brian Cox,Roseanne Arquette,Thora Birch,CA,San Francisco,POINT (-122.4192417 37.779275),5,2026-02-20T16:44:43.000,Tenderloin,-122.4192417,2026-02-20T16:37:46.000,37.779275
Freebie and the Bean,1974,Candlestick Park (602 Jamestown Ave.),"Then Vice President Richard Nixon threw out the first pitch when Candlestick opened in 1960. On August 29, 1966, The Beatles played their last concert for paying fans at Candlestick Park.",Warner Bros. Pictures,American Broadcasting Company (ABC),Richard Rush,Robert Kaufman,Alan Arkin,James Caan,Loretta Swit,CA,San Francisco,POINT (-122.3857003 37.7135483),10,2026-02-20T16:44:43.000,Bayview Hunters Point,-122.3857003,2026-02-20T16:37:46.000,37.7135483
This Is Us,2022,Alamo Square Park,,20th Television,NBC,Mandy Moore,"Dan Fogelman, Casey Johnson, David Windsor, Chrissy Metz",Milo Ventimiglia,Mandy Moore,Sterling K. Brown,CA,San Francisco,POINT (-122.434819 37.7763694),5,2026-02-20T16:44:43.000,Hayes Valley,-122.434819,2026-02-20T16:37:46.000,37.7763694
Dirty Harry,1971,Hall of Justice (850 Bryant Street),,The Malpaso Company,Warner Brothers,Don Siegel,Harry Julian Fink,Clint Eastwood,Harry Guardino,,CA,San Francisco,POINT (-122.4041754 37.7761709),6,2026-02-20T16:44:43.000,South of Market,-122.4041754,2026-02-20T16:37:46.000,37.7761709
San Andreas,2015,AT&T Stadium,"3 characters run out of stadium, there is a group of people on the sidewalk, an earthquake hits, and they duck for cover","Upside Down Productions, Inc.",Warner Bros.,Brad Peyton,Allan Loeb,Dwayne Johnson,,,CA,San Francisco,POINT (-122.3892168 37.7784136),6,2026-02-20T16:44:43.000,Mission Bay,-122.3892168,2026-02-20T16:37:46.000,37.7784136
Getting Even with Dad,1994,140 Maiden Lane,,Metro-Goldwyn-Mayer (MGM),Metro-Goldwyn-Mayer (MGM),Howard Deutch,Tom S. Parker,Macaulay Culkin,Ted Danson,,CA,San Francisco,POINT (-122.4059124 37.7882738),3,2026-02-20T16:44:43.000,Financial District/South Beach,-122.4059124,2026-02-20T16:37:46.000,37.7882738
Guess Who's Coming to Dinner,1967,Sutter Street between Powell and Mason,,Columbia Pictures Corporation,Columbia Pictures,Stanley Kramer,William Rose,Spencer Tracy,Sidney Poitier,Katharine Hepburn,CA,San Francisco,POINT (-122.4085114 37.7890687),3,2026-02-20T16:44:43.000,Financial District/South Beach,-122.4085114,2026-02-20T16:37:46.000,37.7890687
Chance- Season 1 ep102,2016,"Warren's Antiques, 375 9th St.",,TVM Productions,HULU,Lenny Abrahamson,Alexandra Cunningham,Hugh Laurie,Gretchen Mol,Ethan Suplee,CA,San Francisco,POINT (-122.4102389 37.7730283),6,2026-02-20T16:44:43.000,South of Market,-122.4102389,2026-02-20T16:37:46.000,37.7730283
Tales of the City,2019,Castro District,,Universal Television LLC,Netflix,"Alan Poul, Silas Howard, Stacie Passon","Armistead Maupin, Lauren Morelli, Hansol Jung, Marcus Gardley",Laura Linney,Ellen Page,Murray Bartlett,CA,San Francisco,POINT (-122.435033 37.7608937),8,2026-02-20T16:44:43.000,Castro/Upper Market,-122.435033,2026-02-20T16:37:46.000,37.7608937
A Man on The Inside,2024,"California St. between Leavenworth and Powell, Taylor St. between Sacramento and California, Jones St. between California and Pine",,"Universal Television, LLC",Netflix,Morgan Sackett,Michael Schur,Ted Danson,Mary Elizabeth Ellis,Lilah Richcreek Estrada,CA,San Francisco,,,2026-02-20T16:44:43.000,,,2026-02-20T16:37:46.000,
Surface,2022,Taylor Street between Green and Broadway,,"Apple Studios, LLC",Apple TV+,"Sam Miller, Kevin Rodney Sullivan, Jennifer Morrison, Tucker Gates","Veronica West, Erica L. Anderson,Tony Saltzman, Glenise Mullins, Leigh Ann Biety, Dan Lee West, Leigh Ann Biety & Raven Jackson, Martín Zimmerman",Gugu Mbatha-Raw,Oliver Jackson-Cohen,Ari Graynor,CA,San Francisco,POINT (-122.4114139 37.7856667),5,2026-02-20T16:44:43.000,Tenderloin,-122.4114139,2026-02-20T16:37:46.000,37.7856667
The Graduate,1967,Bay Bridge,"Before opening in 1936, the bridge was blessed by Cardinal Secretary of State Eugenio Pacelli, who later became Pope Pius XII.",Embassy Pictures Corporation,Embassy Pictures Corporation,Mike Nichols,Calder Willingham,Anne Bancroft,Dustin Hoffman,Katharine Ross,CA,San Francisco,POINT (-122.3648992 37.8102258),6,2026-02-20T16:44:43.000,Treasure Island,-122.3648992,2026-02-20T16:37:46.000,37.8102258
Looking Season 2 ep 208,2015,950 Mason Street,,"Mission Street Productions, LLC",HBO,Andrew Haigh,Michael Lannan,Jonathan Groff,Frankie Alvarez,Murray Bartlett,CA,San Francisco,POINT (-122.4100923 37.7923883),3,2026-02-20T16:44:43.000,Nob Hill,-122.4100923,2026-02-20T16:37:46.000,37.7923883
24 Hours on Craigslist,2005,,,Yerba Buena Productions,Zealot Pictures,Michael Ferris Gibson,N/A,Craig Newmark,,,CA,San Francisco,,,2026-02-20T16:44:43.000,,,2026-02-20T16:37:46.000,
"Play it Again, Sam",1972,Aquatic Park (Jefferson Street),"Located at one end of Fisherman's Wharf, Aquatic Park was built as part of FDR's Works Progress Administration Project.",Paramount Pictures,Paramount Pictures,Herbert Ross,Woody Allen,Woody Allen,Diane Keaton,Tony Roberts,CA,San Francisco,POINT (-122.4235663 37.8064162),2,2026-02-20T16:44:43.000,Russian Hill,-122.4235663,2026-02-20T16:37:46.000,37.8064162
"Budding Prospects, Pilot",2017,40 Prentiss Street,,Picrow Streaming Inc.,Amazon,Terry Zwigoff,"Melissa Axelrod, T. C. Boyle (based on the book by)",Adam Rose,Will Sasso,Joel David Moore,CA,San Francisco,POINT (-122.4121012 37.7421331),9,2026-02-20T16:44:43.000,Bernal Heights,-122.4121012,2026-02-20T16:37:46.000,37.7421331
Maxie,1985,"722 Steiner Street (Postcard Row, Alamo Square, Hayes Valley)",The 6 Victorian homes across from Alamo Square Park are among the few Victorians to survive the Great Fire.,Elsboy Entertainment,Orion Pictures Corporation,Paul Aaron,Patricia Resnick,Glenn Close,Mandy Patinkin,Ruth Gordon,CA,San Francisco,POINT (-122.4327961 37.7764653),5,2026-02-20T16:44:43.000,Hayes Valley,-122.4327961,2026-02-20T16:37:46.000,37.7764653
Chance- Season 1 ep104,2016,1018 Tennessee St.,,TVM Productions,HULU,Carl Franklin,Peter Elkoff,Hugh Laurie,Gretchen Mol,Ethan Suplee,CA,San Francisco,POINT (-122.3896656 37.7589556),10,2026-02-20T16:44:43.000,Potrero Hill,-122.3896656,2026-02-20T16:37:46.000,37.7589556
Alive,2020,Connecticut at 19th St,,CBS Corporation - CBS Studios Inc./CBS Television Studios,CBS,Uta Briesewitz,Jason Tracey,Ryan Phillippe,Mageina Tovah,Katrina Law,CA,San Francisco,POINT (-122.3973929 37.7612503),10,2026-02-20T16:44:43.000,Potrero Hill,-122.3973929,2026-02-20T16:37:46.000,37.7612503
Twisted,2004,Pier 39,,Paramount Pictures,Paramount Pictures,Philip Kaufman,Sarah Thorp,Ashley Judd,Samuel L. Jackson,,CA,San Francisco,POINT (-122.409821 37.808673),3,2026-02-20T16:44:43.000,North Beach,-122.409821,2026-02-20T16:37:46.000,37.808673
Terminator - Genisys,2015,Powell St at Geary St,,T5 Productions LLC,Paramount Pictures,Alan Taylor,James Cameron,Arnold Schwarzenegger,Jason Clarke,,CA,San Francisco,POINT (-122.4082534 37.7873806),3,2026-02-20T16:44:43.000,Tenderloin,-122.4082534,2026-02-20T16:37:46.000,37.7873806
Guess Who's Coming to Dinner,1967,San Francisco International Airport,SFO has a museum dedicated to aviation history.,Columbia Pictures Corporation,Columbia Pictures,Stanley Kramer,William Rose,Spencer Tracy,Sidney Poitier,Katharine Hepburn,CA,San Francisco,POINT (-122.3816274 37.6191145),,2026-02-20T16:44:43.000,,-122.3816274,2026-02-20T16:37:46.000,37.6191145
Goliath- Season 4,2021,"Brocklebank Apartments, 1000 Mason St",,"Picrow, Inc.",Amazon Studios,"Billy Bob Thornton, Lawrence Trilling, Derek Johansen","David E. Kelley, Jonathan Shapiro",Billy Bob Thornton,Nina Arianda,Tania Raymonde,CA,San Francisco,POINT (-122.4106579 37.7931077),3,2026-02-20T16:44:43.000,Nob Hill,-122.4106579,2026-02-20T16:37:46.000,37.7931077
The Last Black Man in San Francisco,2019,3rd St btwn Evans and Oakdale,,"LBMISF, LLC",A24,Joe Talbot,"Joe Talbot, Jimmie Fails, Rob Richert",Jimmie Fails,Jonathan Majors,Danny Glover,CA,San Francisco,POINT (-122.38772 37.74244),10,2026-02-20T16:44:43.000,Bayview Hunters Point,-122.38772,2026-02-20T16:37:46.000,37.74244
The Pursuit of Happyness,2006,Golden Gate Park Children's Playground,Golden Gate Park is similar in shape but 20% larger than New York's Central Park.,Columbia Pictures Corporation,Columbia Pictures,Steven Conrad,Gabriele Muccino,Will Smith,Jayden C. Smith,,CA,San Francisco,POINT (-122.4572935 37.7682469),7,2026-02-20T16:44:43.000,Golden Gate Park,-122.4572935,2026-02-20T16:37:46.000,37.7682469
Tales of the City,2019,Green btwn Jasper and Bannam,,Universal Television LLC,Netflix,"Alan Poul, Silas Howard, Stacie Passon","Armistead Maupin, Lauren Morelli, Hansol Jung, Marcus Gardley",Laura Linney,Ellen Page,Murray Bartlett,CA,San Francisco,POINT (-122.4078236 37.8001418),3,2026-02-20T16:44:43.000,North Beach,-122.4078236,2026-02-20T16:37:46.000,37.8001418
Stigmata,1999,19th and Kansas St.,,Metro-Goldwyn Mayer,Metro-Goldwyn Mayer Distributing,Rupert Wainwright,Tom Lazarus,Patricia Arquette,Gabriel Byrne,,CA,San Francisco,POINT (-122.4031951 37.7609071),10,2026-02-20T16:44:43.000,Potrero Hill,-122.4031951,2026-02-20T16:37:46.000,37.7609071
The OA Part II,2019,Pier 43,,Lunar Mining LLC,Netflix,Zal Batmanglij,"Zal Batmanglij, Brit Marling",Brit Marling,Emory Cohen,Patrick Gibson,CA,San Francisco,POINT (-122.4133446 37.8092691),3,2026-02-20T16:44:43.000,North Beach,-122.4133446,2026-02-20T16:37:46.000,37.8092691
Dawn of the Planet of the Apes,2014,Columbus & Pacific Ave,,"Fox Louisiana Productions, LLC",Twentieth Century Fox,Matt Reeves,Rick Jaffa,Gary Oldman,Keri Russell,Andy Serkis,CA,San Francisco,POINT (-122.4055351 37.7970715),3,2026-02-20T16:44:43.000,Chinatown,-122.4055351,2026-02-20T16:37:46.000,37.7970715
High Crimes,2002,Vesuvio Café (255 Columbus Avenue),Jack Kerouac was a regular at the café.,Twentieth Century Fox Film Corporation,Twentieth Century Fox Film Corporation,Mel Brooks,Mel Brooks,Mel Brooks,Madeline Kahn,,CA,San Francisco,POINT (-122.4065082 37.7974835),3,2026-02-20T16:44:43.000,Chinatown,-122.4065082,2026-02-20T16:37:46.000,37.7974835
A View to a Kill,1985,Potrero Hill,The most crooked street in San Francisco is actually Potrero Hill's Vermont Street between 20th St & 22nd St.,Metro-Goldwyn Mayer,MGM/UA Entertainment Company,John Glen,Richard Maibaum,Roger Moore,Christopher Walken,Tanya Roberts,CA,San Francisco,POINT (-122.4011391 37.7597412),10,2026-02-20T16:44:43.000,Potrero Hill,-122.4011391,2026-02-20T16:37:46.000,37.7597412
Chance - Season 1 Pilot,2016,1055 Montgomery St.,,TVM Productions,HULU,Lenny Abrahamson,Alexandra Cunningham and Kem Nunn,Hugh Laurie,Gretchen Mol,Ethan Suplee,CA,San Francisco,POINT (-122.4041296 37.7989409),3,2026-02-20T16:44:43.000,North Beach,-122.4041296,2026-02-20T16:37:46.000,37.7989409
The Dead Pool,1988,710 Steiner Street (Hayes Valley),,Warner Bros. Pictures,Warner Bros. Pictures,Buddy Van Horn,Harry Julian Fink,Clint Eastwood,Liam Neeson,Patricia Clarkson,CA,San Francisco,POINT (-122.4327231 37.7760676),5,2026-02-20T16:44:43.000,Hayes Valley,-122.4327231,2026-02-20T16:37:46.000,37.7760676
A Man on The Inside,2024,Oracle Park,,"Universal Television, LLC",Netflix,Morgan Sackett,Michael Schur,Ted Danson,Mary Elizabeth Ellis,Lilah Richcreek Estrada,CA,San Francisco,POINT (-122.3892168 37.7784136),6,2026-02-20T16:44:43.000,Mission Bay,-122.3892168,2026-02-20T16:37:46.000,37.7784136
Pushing Dead,2016,"915 Naples, San Francisco",,"Pushing Dead , LLC",TBD,Tom Brown,Tom Brown,Danny Glover,James Roday,Robin Weigert,CA,San Francisco,POINT (-122.4353078 37.715051),11,2026-02-20T16:44:43.000,Excelsior,-122.4353078,2026-02-20T16:37:46.000,37.715051
To the Ends of the Earth,1948,,,Kennedy-Buckman Pictures,Columbia Pictures,Robert Stevenson,Jay Richard Kennedy,Dick Powell,Signe Hasso,Maylia,CA,San Francisco,,,2026-02-20T16:44:43.000,,,2026-02-20T16:37:46.000,
Cardinal X,2015,3639 Taraval St,,Fire Horse Film Productions LLC,,Annie Wang,Annie Wang,Annie Q,Francesca Eastwood,Pierson Fode,CA,San Francisco,POINT (-122.5053735 37.7415774),4,2026-02-20T16:44:43.000,Sunset/Parkside,-122.5053735,2026-02-20T16:37:46.000,37.7415774
This Is Us,2022,Lombard Street at Hyde,,20th Television,NBC,Mandy Moore,"Dan Fogelman, Casey Johnson, David Windsor, Chrissy Metz",Milo Ventimiglia,Mandy Moore,Sterling K. Brown,CA,San Francisco,POINT (-122.4196461 37.8020026),3,2026-02-20T16:44:43.000,Russian Hill,-122.4196461,2026-02-20T16:37:46.000,37.8020026
Dirty Harry,1971,The Embarcadero,,The Malpaso Company,Warner Brothers,Don Siegel,Harry Julian Fink,Clint Eastwood,Harry Guardino,,CA,San Francisco,POINT (-122.3976732 37.7992627),3,2026-02-20T16:44:43.000,Financial District/South Beach,-122.3976732,2026-02-20T16:37:46.000,37.7992627
Pleasure of His Company,1961,Grace Cathedral Episcopal Church (1100 California Street),Grace Cathedral Episcopal Church is the West Coast's largest Episcopalian cathedral.,Perlsea Company,Paramount Pictures,George Seaton,Samuel A. Taylor,Fred Astaire,Debbie Reynolds,Lilli Palmer,CA,San Francisco,POINT (-122.4133739 37.7918593),3,2026-02-20T16:44:43.000,Nob Hill,-122.4133739,2026-02-20T16:37:46.000,37.7918593
Birth of the Dragon,2016,Spofford between Clay and Washington,,"BOTD U.S. Productions, Inc.",Kylin Pictures,George Nolfi,"Christopher Wilkinson, Stephen J. Rivele",Philip Ng,Billy Magnussen,Yu Xia,CA,San Francisco,POINT (-122.40602 37.79426),3,2026-02-20T16:44:43.000,Chinatown,-122.40602,2026-02-20T16:37:46.000,37.79426
Basic Instinct,1992,2930 Vallejo Street,,Carolco Pictures,TriStar Pictures,Paul Verhoeven,Joe Eszterhas,Michael Douglas,Sharon Stone,George Dzundza,CA,San Francisco,POINT (-122.4457056 37.7941209),2,2026-02-20T16:44:43.000,Pacific Heights,-122.4457056,2026-02-20T16:37:46.000,37.7941209
High Crimes,2002,Maiden Lane,,Twentieth Century Fox Film Corporation,Twentieth Century Fox Film Corporation,Mel Brooks,Mel Brooks,Mel Brooks,Madeline Kahn,,CA,San Francisco,POINT (-122.4053532 37.7882182),3,2026-02-20T16:44:43.000,Financial District/South Beach,-122.4053532,2026-02-20T16:37:46.000,37.7882182
Zodiac,2007,SF Chronicle Building (901 Mission St),,Paramount Pictures,Paramount Pictures,David Fincher,James Vanderbilt,Jake Gyllenhaal,Mark Ruffalo,,CA,San Francisco,POINT (-122.4065207 37.7822008),6,2026-02-20T16:44:43.000,South of Market,-122.4065207,2026-02-20T16:37:46.000,37.7822008
Goliath,2021,Bush Street at Grant Avenue,,Amazon Studios,Amazon Prime Video,Lawrence Trilling,Jennifer Ames,J.K. Simmons,Jena Malone,Lenora Crichlow,CA,San Francisco,POINT (-122.4055626 37.7905824),3,2026-02-20T16:44:43.000,Financial District/South Beach,-122.4055626,2026-02-20T16:37:46.000,37.7905824
Chance - Season 1 ep105,2016,"The Drew School, 2901 California",,TVM Productions,HULU,Victoria Morrow,Roxann Dawson,Hugh Laurie,Gretchen Mol,Ethan Suplee,CA,San Francisco,POINT (-122.442352 37.787638),2,2026-02-20T16:44:43.000,Pacific Heights,-122.442352,2026-02-20T16:37:46.000,37.787638
Attack of the Killer Tomatoes,1978,Hyde Street Cable Car,SF Cable Cars are the only moving National Historical Landmark.,Four Square Productions,NAI Entertainment,John DeBello,John DeBello,David Miller,,,CA,San Francisco,POINT (-122.4210347 37.8068789),2,2026-02-20T16:44:43.000,Russian Hill,-122.4210347,2026-02-20T16:37:46.000,37.8068789
Hulk,2003,Telegraph Hill,"Largely untouched by the 1906 earthquake, Telegraph Hill has the most pre-1870 buildings in the city.",Universal Pictures,Universal Pictures,Ang Lee,Stan Lee,Eric Bana,Jennifer Connelly,,CA,San Francisco,POINT (-122.4052612 37.8009425),3,2026-02-20T16:44:43.000,North Beach,-122.4052612,2026-02-20T16:37:46.000,37.8009425
Foul Play,1978,Sacramento & Hyde Streets (Nob Hill),,Paramount Pictures,Paramount Pictures,Colin Higgins,Colin Higgins,Goldie Hawn,Chevy Chase,Burgess Meredith,CA,San Francisco,POINT (-122.417608 37.7919369),3,2026-02-20T16:44:43.000,Nob Hill,-122.417608,2026-02-20T16:37:46.000,37.7919369
Terminator - Genisys,2015,Pine and Leavenworth,,T5 Productions LLC,Paramount Pictures,Alan Taylor,James Cameron,Arnold Schwarzenegger,Jason Clarke,,CA,San Francisco,POINT (-122.4155765 37.7902607),3,2026-02-20T16:44:43.000,Nob Hill,-122.4155765,2026-02-20T16:37:46.000,37.7902607
Alexander's Ragtime Band,1938,"Fairmont Hotel (950 Mason Street, Nob Hill)","In 1945 the Fairmont hosted the United Nations Conference on International Organization as delegates arrived to draft a charter for the organization. The U.S. Secretary of State, Edward Stettinius drafted the charter in the hotel's Garden Room.",Twentieth Century Fox Film Corporation,Twentieth Century Fox Film Corporation,Henry King,Kathryn Scola,Tyrone Power,Alice Faye,Don Ameche,CA,San Francisco,POINT (-122.4100923 37.7923883),3,2026-02-20T16:44:43.000,Nob Hill,-122.4100923,2026-02-20T16:37:46.000,37.7923883
Surface,2022,Powell Street at Geary,,"Apple Studios, LLC",Apple TV+,"Sam Miller, Kevin Rodney Sullivan, Jennifer Morrison, Tucker Gates","Veronica West, Erica L. Anderson,Tony Saltzman, Glenise Mullins, Leigh Ann Biety, Dan Lee West, Leigh Ann Biety & Raven Jackson, Martín Zimmerman",Gugu Mbatha-Raw,Oliver Jackson-Cohen,Ari Graynor,CA,San Francisco,POINT (-122.4082534 37.7873806),3,2026-02-20T16:44:43.000,Tenderloin,-122.4082534,2026-02-20T16:37:46.000,37.7873806
So I Married an Axe Murderer,1993,Prudente's Italian Deli (1462 Grant Ave at Union),"Prudente's Italian Deli, which has since closed, is called ""Meats of the World"" in the film.",TriStar Pictures,TriStar Pictures,Thomas Schlamme,Robbie Fox,Mike Myers,Nancy Travis,,CA,San Francisco,POINT (-122.4073931 37.8004752),3,2026-02-20T16:44:43.000,North Beach,-122.4073931,2026-02-20T16:37:46.000,37.8004752
D.O.A,1950,Chambord Apartments (1298 Sacramento Street at Jones),,Cardinal Pictures,United Artists,Rudolph Mate,Russell Rouse,Edmond O'Brien,Pamela Britton,Luther Adler,CA,San Francisco,POINT (-122.4141247 37.7924899),3,2026-02-20T16:44:43.000,Nob Hill,-122.4141247,2026-02-20T16:37:46.000,37.7924899
Vertigo,1958,900 Lombard Street,Lombard Street is not actually the most crooked in SF. That honor goes to Potrero Hill's Vermont Street between 22nd and 23rd.,Alfred J. Hitchcock Productions,Paramount Pictures,Alfred Hitchcock,Alec Coppel,James Stewart,Kim Novak,Barbara Bel Geddes,CA,San Francisco,POINT (-122.4165725 37.802546),3,2026-02-20T16:44:43.000,Russian Hill,-122.4165725,2026-02-20T16:37:46.000,37.802546
A Jitney Elopement,1915,20th and Folsom Streets,,The Essanay Film Manufacturing Company,General Film Company,Charles Chaplin,Charles Chaplin,Charles Chaplin,Edna Purviance,,CA,San Francisco,POINT (-122.42792 37.75826),8,2026-02-20T16:44:43.000,Castro/Upper Market,-122.42792,2026-02-20T16:37:46.000,37.75826
Looking Season 2 ep 202,2015,901 Valencia Street,,"Mission Street Productions, LLC",HBO,Andrew Haigh,Michael Lannan,Jonathan Groff,Frankie Alvarez,Murray Bartlett,CA,San Francisco,POINT (-122.4210956 37.7584235),9,2026-02-20T16:44:43.000,Mission,-122.4210956,2026-02-20T16:37:46.000,37.7584235
"Hello Frisco, Hello",1943,,,Twentieth Century Fox Film Corporation,Twentieth Century Fox Film Corporation,Bruce Humberstone,Robert Ellis,Alice Faye,John Payne,Jack Oakie,CA,San Francisco,,,2026-02-20T16:44:43.000,,,2026-02-20T16:37:46.000,
Sweet November,2001,"Foote, Cone & Belding (733 Front Street at Pacific)","The building is called ""Jabe & Dunne Advertising Agency"" in the movie.",Warner Bros. Pictures,Warner Bros. Pictures,Pat O'Connor,Paul Yurick,Keanu Reeves,Charlize Theron,,CA,San Francisco,POINT (-122.4000623 37.7980575),3,2026-02-20T16:44:43.000,Financial District/South Beach,-122.4000623,2026-02-20T16:37:46.000,37.7980575
Shit and Champagne,2020,La Ferrera Terrace at Kearny St,,"Shaboom Boom, LLC",,D'Arcy Drollinger,D'Arcy Drollinger,D'Arcy Drollinger,Matthew Martin,Steven LeMay,CA,San Francisco,POINT (-122.4066953 37.8039343),3,2026-02-20T16:44:43.000,North Beach,-122.4066953,2026-02-20T16:37:46.000,37.8039343
"Murder in the First, Season 2",2015,Columbus Avenue between Washington and Bay Streets,,Turner North Center Productions,Turner Network Television (TNT),Steven Bochcho,Eric Lodal,Taye Diggs,Kathleen Robertson,Ian Anthony Dale,CA,San Francisco,POINT (-122.41802 37.8056),3,2026-02-20T16:44:43.000,Russian Hill,-122.41802,2026-02-20T16:37:46.000,37.8056
Bedazzled,2000,1155 Filbert Street at Hyde,,Twentieth Century Fox Film Corp.,Twentieth Century Fox Film Corp.,Harold Ramis,Harold Ramis,Brendan Fraser,Elizabeth Hurley,,CA,San Francisco,POINT (-122.4185327 37.800134),3,2026-02-20T16:44:43.000,Russian Hill,-122.4185327,2026-02-20T16:37:46.000,37.800134
"Smile Again, Jenny Lee",2015,510 Noe Street & 18th St.,,Carlo Caldana/Marguery Films,,Carlo Caldana,Linda Demetrick,Craig Tsuyumine,Puneet Prasad,Larry Kitagawa,CA,San Francisco,POINT (-122.4329885 37.7606868),8,2026-02-20T16:44:43.000,Castro/Upper Market,-122.4329885,2026-02-20T16:37:46.000,37.7606868
Goliath- Season 4,2021,Fort Point (Golden Gate National Recreation Area),,"Picrow, Inc.",Amazon Studios,"Billy Bob Thornton, Lawrence Trilling, Derek Johansen","David E. Kelley, Jonathan Shapiro",Billy Bob Thornton,Nina Arianda,Tania Raymonde,CA,San Francisco,POINT (-122.47709 37.8106117),2,2026-02-20T16:44:43.000,Presidio,-122.47709,2026-02-20T16:37:46.000,37.8106117
Romeo Must Die,2000,Chinatown,"First established in the mid-19th Century, SF's Chinatown is the oldest and largest Chinatown in the US.",Silver Pictures,Warner Bros. Pictures,Andrzej Bartkowiak,Mitchell Kapner,Jet Li,Aaliyah,,CA,San Francisco,POINT (-122.4048082 37.7944675),3,2026-02-20T16:44:43.000,Chinatown,-122.4048082,2026-02-20T16:37:46.000,37.7944675
Nine Months,1995,Jones Street at Bush,,1492 Pictures,Twentieth Century Fox Film Corp.,Chris Columbus,Chris Columbus,Hugh Grant,Julianne Moore,Robin Williams,CA,San Francisco,POINT (-122.4137459 37.7895412),3,2026-02-20T16:44:43.000,Nob Hill,-122.4137459,2026-02-20T16:37:46.000,37.7895412
DEVS,2020,Judah at 20th Ave,,Minim Productions,FX Network,Alex Garland,Alex Garland,Sonoya Mizuno,Nick Offerman,Jin Ha,CA,San Francisco,POINT (-122.478099 37.7616696),4,2026-02-20T16:44:43.000,Sunset/Parkside,-122.478099,2026-02-20T16:37:46.000,37.7616696
The Princess Diaries,2001,Firestation #3 (Brazil Avenue and Athens Street),,Walt Disney Pictures,Buena Vista Pictures,Garry Marshall,Gina Wendkos,Julie Andrews,Anne Hathway,,CA,San Francisco,POINT (-122.4316939 37.7163399),11,2026-02-20T16:44:43.000,Excelsior,-122.4316939,2026-02-20T16:37:46.000,37.7163399
Bullitt,1968,20th & Vermont Streets (Potrero Hill),The most crooked street in San Francisco is actually Potrero Hill's Vermont Street between 20th St & 22nd St.,Warner Brothers / Seven Arts Seven Arts,Warner Brothers,Peter Yates,Alan R. Trustman,Steve McQueen,Jacqueline Bisset,Robert Vaughn,CA,San Francisco,POINT (-122.4040359 37.7595749),10,2026-02-20T16:44:43.000,Potrero Hill,-122.4040359,2026-02-20T16:37:46.000,37.7595749
When We Rise,2017,Haight St. at Central,,Film 49 Productions,Amercian Broadcasting Company,Gus Van Sant,Dustin Lance Black,Guy Pierce,Mary-Louise Parker,Michael Kenneth Williams,CA,San Francisco,POINT (-122.43979 37.7709327),5,2026-02-20T16:44:43.000,Haight Ashbury,-122.43979,2026-02-20T16:37:46.000,37.7709327
San Andreas,2015,Fort Baker,,"Upside Down Productions, Inc.",Warner Bros.,Brad Peyton,Allan Loeb,Dwayne Johnson,,,CA,San Francisco,POINT (-122.4788979 37.8360614),,2026-02-20T16:44:43.000,,-122.4788979,2026-02-20T16:37:46.000,37.8360614
180,2011,Mason & California Streets (Nob Hill),,SPI Cinemas,,Jayendra,"Umarji Anuradha, Jayendra, Aarthi Sriram, & Suba",Siddarth,Nithya Menon,Priya Anand,CA,San Francisco,POINT (-122.4108465 37.7918448),3,2026-02-20T16:44:43.000,Nob Hill,-122.4108465,2026-02-20T16:37:46.000,37.7918448
The Phone/Jexi,2019,Castro at 19th St,,CBS Films Inc.,Lionsgate,"Jon Lucas, Scott Moore","Jon Lucas, Scott Moore",Adam Devine,Alexandra Shipp,Michael Pena,CA,San Francisco,POINT (-122.4348796 37.7592955),8,2026-02-20T16:44:43.000,Castro/Upper Market,-122.4348796,2026-02-20T16:37:46.000,37.7592955
The Dead Pool,1988,"The Cannery (281 Leavenworth Street, Fisherman's Wharf)",,Warner Bros. Pictures,Warner Bros. Pictures,Buddy Van Horn,Harry Julian Fink,Clint Eastwood,Liam Neeson,Patricia Clarkson,CA,San Francisco,POINT (-122.4144743 37.783794),5,2026-02-20T16:44:43.000,Tenderloin,-122.4144743,2026-02-20T16:37:46.000,37.783794
Broken-A Modern Love Story,2010,Ina Coolbrith Park (1700 Taylor Street),,RKW Films,,Ryan K. Whiting,Ryan K. Whiting,,,,CA,San Francisco,POINT (-122.4137716 37.7980325),3,2026-02-20T16:44:43.000,Nob Hill,-122.4137716,2026-02-20T16:37:46.000,37.7980325
Chance- Season 1 ep107,2016,157 Commonwealth,,TVM Productions,HULU,Alexandra Cunningham and Kem Nunn,Michael Lehmann,Hugh Laurie,Gretchen Mol,Ethan Suplee,CA,San Francisco,POINT (-122.4559379 37.7825888),2,2026-02-20T16:44:43.000,Presidio Heights,-122.4559379,2026-02-20T16:37:46.000,37.7825888
Birth of the Dragon,2016,Twin Peaks Blvd.,,"BOTD U.S. Productions, Inc.",Kylin Pictures,George Nolfi,"Christopher Wilkinson, Stephen J. Rivele",Philip Ng,Billy Magnussen,Yu Xia,CA,San Francisco,POINT (-122.4481679 37.7533798),7,2026-02-20T16:44:43.000,Twin Peaks,-122.4481679,2026-02-20T16:37:46.000,37.7533798
Fearless,1993,400 Montgomery Street,,Spring Creek Productions,Warner Bros. Pictures,Peter Weir,Rafael Yglesias,Jeff Bridges,Isabella Rosellini,Rosie Perez,CA,San Francisco,POINT (-122.402597 37.7931137),3,2026-02-20T16:44:43.000,Financial District/South Beach,-122.402597,2026-02-20T16:37:46.000,37.7931137
The Princess Diaries,2001,Broadway Tunnel (Broadway between Powell and Larkin),,Walt Disney Pictures,Buena Vista Pictures,Garry Marshall,Gina Wendkos,Julie Andrews,Anne Hathway,,CA,San Francisco,POINT (-122.411412 37.7971782),3,2026-02-20T16:44:43.000,Chinatown,-122.411412,2026-02-20T16:37:46.000,37.7971782
Heart and Souls,1993,2810 Pacific Avenue,,Universal Pictures,Electric Parc,Tomas Gislason,Tomas Gislason,Jorgen Leth,,,CA,San Francisco,POINT (-122.4420964 37.792705),2,2026-02-20T16:44:43.000,Pacific Heights,-122.4420964,2026-02-20T16:37:46.000,37.792705
Godzilla,2014,Broadway & Sansome,,"Nautilus Productions, LLC",Warner Bros. Pictures,Gareth Edwards,Max Borenstein,Aaron Taylor-Johnson,Elizabeth Olsen,Bryan Cranston,CA,San Francisco,POINT (-122.4022487 37.7984316),3,2026-02-20T16:44:43.000,North Beach,-122.4022487,2026-02-20T16:37:46.000,37.7984316
Blindspotting Season 2,2022,"Broadway Studios, 435 Broadway",,Blindspotting Productions Inc,Starz,Rafael Casal,"Brittany Miller, Rafael Casal, Daveed Diggs",Rafael Casal,Daveed Diggs,Helen Hunt,CA,San Francisco,POINT (-122.404479 37.7979773),3,2026-02-20T16:44:43.000,North Beach,-122.404479,2026-02-20T16:37:46.000,37.7979773
The Last Thing He Told Me,2023,2698 Pacific Avenue,,20th Television,Apple TV+,"Olivia Newman, Deniz Gamze Ergüven, Daisy Von Scherler Mayer, Lila Neugebauer",Laura Dave,Jennifer Garner,Angourie Rice,Aisha Tyler,CA,San Francisco,POINT (-122.4395368 37.7929909),2,2026-02-20T16:44:43.000,Pacific Heights,-122.4395368,2026-02-20T16:37:46.000,37.7929909
Super Pumped: The Battle for Uber,2022,Grant Avenue between O'Farrell to Geary,,Possible Productions,Showtime,"Allen Coulter, Daniel Gray Longino, John Dahl, Zetna Fuentes","Brian Koppelman & David Levien, Sarah Acosta, Stephen Schiff, Emily Hornsby, Safie M. Dirie, Beth Schacter",Joseph Gordon-Levitt,Kyle Chandler,Kerry Bishé,CA,San Francisco,,,2026-02-20T16:44:43.000,,,2026-02-20T16:37:46.000,
"Smile Again, Jenny Lee",2015,Unitarian Church (1187 Franklin St.),,Carlo Caldana/Marguery Films,,Carlo Caldana,Linda Demetrick,Craig Tsuyumine,Puneet Prasad,Larry Kitagawa,CA,San Francisco,POINT (-122.4234103 37.7852038),2,2026-02-20T16:44:43.000,Western Addition,-122.4234103,2026-02-20T16:37:46.000,37.7852038
Always Be My Maybe,2019,26th Ave and El Camino Del mar,,"Isla Productions, LLC",Netflix,Nahnatchka Khan,"Michael Golamco, Randall Park, Ali Wong",Ali Wong,Randall Park,Keanu Reeves,CA,San Francisco,POINT (-122.4863702 37.7875742),1,2026-02-20T16:44:43.000,Seacliff,-122.4863702,2026-02-20T16:37:46.000,37.7875742
Time After Time,1979,Chestnut & Divisadero Streets (Marina District),,Orion Pictures Corp.,Columbia Broadcasting System (CBS),Nicholas Meyer,Karl Alexander,Malcolm McDowell,Mary Steenburgen,David Warner,CA,San Francisco,POINT (-122.4428744 37.7999898),2,2026-02-20T16:44:43.000,Marina,-122.4428744,2026-02-20T16:37:46.000,37.7999898
Freebie and the Bean,1974,Folsom Street (SOMA),,Warner Bros. Pictures,American Broadcasting Company (ABC),Richard Rush,Robert Kaufman,Alan Arkin,James Caan,Loretta Swit,CA,San Francisco,POINT (-122.4149402 37.7612212),9,2026-02-20T16:44:43.000,Mission,-122.4149402,2026-02-20T16:37:46.000,37.7612212
Sense8,2015,20th,Driving shots,"Unpronounceable Productions, LLC",Netflix,The Wachowskis,The Wachowskis,Jamie Clayton,,,CA,San Francisco,POINT (-122.4116 37.7590974),9,2026-02-20T16:44:43.000,Mission,-122.4116,2026-02-20T16:37:46.000,37.7590974
Petulia,1968,307 Filbert Street,,Warner Brothers / Seven Arts,Warner Brothers / Seven Arts,Richard Lester,Lawrence B. Marcus,Julie Christie,George C. Scott,Richard Chamberlain,CA,San Francisco,POINT (-122.4050682 37.8017592),3,2026-02-20T16:44:43.000,North Beach,-122.4050682,2026-02-20T16:37:46.000,37.8017592
Magnum Force,1973,City Hall,"The dome of SF's City Hall is almost a foot taller than that of the US Capitol Building. In 1954, Joe DiMaggio and Marilyn Monroe married at the Beaux Arts-style building.",The Malpaso Company,Warner Bros. Pictures,Ted Post,John Milius,Clint Eastwood,Hal Holbrook,Mitchell Ryan,CA,San Francisco,POINT (-122.4192417 37.779275),5,2026-02-20T16:44:43.000,Tenderloin,-122.4192417,2026-02-20T16:37:46.000,37.779275
GirlBoss,2017,"La Taqueria, 2889 Mission St.","The restaurant was given the honor of ""America's Best Burrito"" in 2014 by ESPN's FiveThirtyEight.","Hippolyta Productions, LLC",Netflix,"Jamie Babbit, Amanda Brotchie, Steven K. Tsuchida, Christian Ditter, John Riggi",Kay Cannon,Britt Robertson,Ellie Reed,Amanda Rea,CA,San Francisco,POINT (-122.4180833 37.7508916),9,2026-02-20T16:44:43.000,Mission,-122.4180833,2026-02-20T16:37:46.000,37.7508916
Chance Season 2,2017,Market St at Embarcadero,,TVM Productions Inc.,Hulu,Rozann Dawson,Alexandra Cunningham,Hugh Laurie,Greta Lee,Ethan Suplee,CA,San Francisco,POINT (-122.4212203 37.7735081),6,2026-02-20T16:44:43.000,Mission,-122.4212203,2026-02-20T16:37:46.000,37.7735081
Terminator - Genisys,2015,Construction Site in front of 260 Stockton St. at Post St.,,T5 Productions LLC,Paramount Pictures,Alan Taylor,James Cameron,Arnold Schwarzenegger,Jason Clarke,,CA,San Francisco,POINT (-122.406486 37.7883421),3,2026-02-20T16:44:43.000,Financial District/South Beach,-122.406486,2026-02-20T16:37:46.000,37.7883421
40 Days and 40 Nights,2002,Café Trieste (609 Vallejo),"Francis Ford Coppola allegedly wrote large portions of ""The Godfather"" trilogy in Café Trieste.",Miramax Films,Miramax Films,Michael Lehmann,Robert Perez,Josh Hartnett,Shaynnyn Sossamon,,CA,San Francisco,POINT (-122.4073139 37.7986417),3,2026-02-20T16:44:43.000,North Beach,-122.4073139,2026-02-20T16:37:46.000,37.7986417
Chance- Season 1 ep104,2016,Bush and Sansome St.,,TVM Productions,HULU,Carl Franklin,Peter Elkoff,Hugh Laurie,Gretchen Mol,Ethan Suplee,CA,San Francisco,POINT (-122.4007722 37.791194),3,2026-02-20T16:44:43.000,Financial District/South Beach,-122.4007722,2026-02-20T16:37:46.000,37.791194
Terminator - Genisys,2015,"Mission St., Embarcadero, and Front between Clay and Market",,T5 Productions LLC,Paramount Pictures,Alan Taylor,James Cameron,Arnold Schwarzenegger,Jason Clarke,,CA,San Francisco,POINT (-122.3936136 37.7954425),3,2026-02-20T16:44:43.000,Financial District/South Beach,-122.3936136,2026-02-20T16:37:46.000,37.7954425
Steve Jobs,2015,Castro St. between 21st an Hill St,,RDF Productions LLC,Universal Pictures,Danny Boyle,Aaron Sorkin,Michael Fassbender,Kate Winslet,Seth Rogen,CA,San Francisco,POINT (-122.4342208 37.7524013),8,2026-02-20T16:44:43.000,Noe Valley,-122.4342208,2026-02-20T16:37:46.000,37.7524013
Bitter Melon,2018,"Pay and Save Grocery, 599 Guerrero St",The film won Best Narrative Feature at the San Diego Asian Film Festival.,Bitter Melon Film LLC/Mammoth Pictures,"ABS-CBN, Gravitas Ventures",H.P. Mendoza,H.P. Mendoza,Jon Norman Schneider,Patrick Epino,Brian Rivera,CA,San Francisco,POINT (-122.4236314 37.7616945),9,2026-02-20T16:44:43.000,Mission,-122.4236314,2026-02-20T16:37:46.000,37.7616945
"Looking ""Special""",2016,"Li Po Lounge, 916 Grant Avenue",Li Po Cocktail Lounge was one of the Top 10 Dive Bars in San Francisco in 2011 by SF Weekly,"Mission Street Productions, LLC",HBO,Andrew Haigh,Michael Lannan,Jonathan Groff,Frankie Alvarez,Murray Bartlett,CA,San Francisco,POINT (-122.4064344 37.7954238),3,2026-02-20T16:44:43.000,Chinatown,-122.4064344,2026-02-20T16:37:46.000,37.7954238
Foul Play,1978,Sutter & Buchannan Streets,,Paramount Pictures,Paramount Pictures,Colin Higgins,Colin Higgins,Goldie Hawn,Chevy Chase,Burgess Meredith,CA,San Francisco,POINT (-122.4316945 37.790738),2,2026-02-20T16:44:43.000,Pacific Heights,-122.4316945,2026-02-20T16:37:46.000,37.790738
Chance- Season 1 ep102,2016,John St. between Powell and Mason,,TVM Productions,HULU,Lenny Abrahamson,Alexandra Cunningham,Hugh Laurie,Gretchen Mol,Ethan Suplee,CA,San Francisco,POINT (-122.411619 37.7962),3,2026-02-20T16:44:43.000,Chinatown,-122.411619,2026-02-20T16:37:46.000,37.7962
GirlBoss,2017,Clarion Alley between Valencia and Mission,The murals that make up this famous alley were first painted in 1992 and still looked after by the Clarion Alley Mural Project.,"Hippolyta Productions, LLC",Netflix,"Jamie Babbit, Amanda Brotchie, Steven K. Tsuchida, Christian Ditter, John Riggi",Kay Cannon,Britt Robertson,Ellie Reed,Amanda Rea,CA,San Francisco,POINT (-122.4207943 37.7629824),9,2026-02-20T16:44:43.000,Mission,-122.4207943,2026-02-20T16:37:46.000,37.7629824
The Bachelor,1999,Washington Square Park (North Beach),"Washington Square Park is not actually a square, as it has 5 sides. North Beach is not a beach. The statue in the Park is Ben Franklin, not George Washington.",George Street Pictures,New Line Cinema,Gary Sinyor,Steve Cohen,Chris O'Donnell,Renee Zellweger,,CA,San Francisco,POINT (-122.4102464 37.8007752),3,2026-02-20T16:44:43.000,North Beach,-122.4102464,2026-02-20T16:37:46.000,37.8007752
Time After Time,1979,Lombard & Divisadero Streets (Marina District),,Orion Pictures Corp.,Columbia Broadcasting System (CBS),Nicholas Meyer,Karl Alexander,Malcolm McDowell,Mary Steenburgen,David Warner,CA,San Francisco,POINT (-122.4426736 37.7990728),2,2026-02-20T16:44:43.000,Marina,-122.4426736,2026-02-20T16:37:46.000,37.7990728
They Call Me MISTER Tibbs,1970,,,Mirisch Corporation,United Artists,Gordon Douglas,Alan R. Trustman,Sidney Poitier,Martin Landau,Barbara McNair,CA,San Francisco,,,2026-02-20T16:44:43.000,,,2026-02-20T16:37:46.000,
A Man on The Inside,2024,1201 California St. at Jones St.,,"NBCUniversal Media, LLC",Netflix,Morgan Sackett,Michael Schur,Ted Danson,Mary Elizabeth Ellis,Lilah Richcreek Estrada,CA,San Francisco,POINT (-122.4143334 37.7912071),3,2026-02-20T16:44:43.000,Nob Hill,-122.4143334,2026-02-20T16:37:46.000,37.7912071
Babies,2010,,,Canal+,Focus Features,Thomas Balmes,Thomas Balmes,Bayar,Hattie,,CA,San Francisco,,,2026-02-20T16:44:43.000,,,2026-02-20T16:37:46.000,
Bitter Melon,2018,298 11th St,,Bitter Melon Film LLC/Mammoth Pictures,"ABS-CBN, Gravitas Ventures",H.P. Mendoza,H.P. Mendoza,Jon Norman Schneider,Patrick Epino,Brian Rivera,CA,San Francisco,POINT (-122.4144497 37.7719479),6,2026-02-20T16:44:43.000,Mission,-122.4144497,2026-02-20T16:37:46.000,37.7719479
Surface,2022,Post Street between Montgomery and Kearny,,"Apple Studios, LLC",Apple TV+,"Sam Miller, Kevin Rodney Sullivan, Jennifer Morrison, Tucker Gates","Veronica West, Erica L. Anderson,Tony Saltzman, Glenise Mullins, Leigh Ann Biety, Dan Lee West, Leigh Ann Biety & Raven Jackson, Martín Zimmerman",Gugu Mbatha-Raw,Oliver Jackson-Cohen,Ari Graynor,CA,San Francisco,POINT (-122.4035729 37.7892748),3,2026-02-20T16:44:43.000,Financial District/South Beach,-122.4035729,2026-02-20T16:37:46.000,37.7892748
Mona Lisa Smile,2003,,,Revolution Studios,Columbia Pictures,Mike Newell,Lawrence Konner,Julia Roberts,Kirsten Dunst,,CA,San Francisco,,,2026-02-20T16:44:43.000,,,2026-02-20T16:37:46.000,
Chance Season 2,2017,Scott St between Jackson and Clay St,,TVM Productions Inc.,Hulu,Rozann Dawson,Alexandra Cunningham,Hugh Laurie,Greta Lee,Ethan Suplee,CA,San Francisco,POINT (-122.43968 37.79178),2,2026-02-20T16:44:43.000,Pacific Heights,-122.43968,2026-02-20T16:37:46.000,37.79178
The Core,2003,Golden Gate Bridge,"With 23 miles of ladders and 300,000 rivets in each tower, the Golden Gate Bridge was the world's longest span when it opened in 1937.",David Foster Productions,Paramount Pictures,John Amiel,Cooper Lane,Aaron Eckhart,Hilary Swank,,CA,San Francisco,POINT (-122.4785598 37.8199109),,2026-02-20T16:44:43.000,,-122.4785598,2026-02-20T16:37:46.000,37.8199109
Summertime,2015,Turk St between Lyon and Baker St,,"Creative Monster Productions, Inc.",4 Distribution,Gabriele Muccino,Gabriele Muccino,Jessica Rothe,Scott Bakula,Matilda Anna Ingrid Lutz,CA,San Francisco,POINT (-122.4436682 37.7791695),2,2026-02-20T16:44:43.000,Lone Mountain/USF,-122.4436682,2026-02-20T16:37:46.000,37.7791695
Ant-Man,2015,Lombard at Hyde,,"PYM Particles Productions, LLC",Walt Disney Studios Motion Pictures,Peyton Reed,Gabriel Ferrari,Michael Douglas,Paul Rudd,,CA,San Francisco,POINT (-122.4196461 37.8020026),3,2026-02-20T16:44:43.000,Russian Hill,-122.4196461,2026-02-20T16:37:46.000,37.8020026
Venom,2018,Kearny Steps/btwn Green and Pacific,Motorcycle stunt scene,"L.O.Z. Productions, Inc.","Columbia Pictures, Sony Pictures Releasing",Ruben Fleischer,"Jeff Pinkner, Scott Rosenberg",Tom Hardy,Michelle Wiliams,Riz Ahmed,CA,San Francisco,POINT (-122.4055417 37.7988787),3,2026-02-20T16:44:43.000,North Beach,-122.4055417,2026-02-20T16:37:46.000,37.7988787
Ballers Season 3,2017,"Huntington Park (California & Taylor Streets, Nob Hill)",,"Chori Perros Productions, LLC",HBO,Julian Farino,Stephen Levinson,Dwayne Johnson,John David Washington,Omar Benson Miller,CA,San Francisco,POINT (-122.4121403 37.7922657),3,2026-02-20T16:44:43.000,Nob Hill,-122.4121403,2026-02-20T16:37:46.000,37.7922657
The Lady from Shanghai,1947,Former Hall of Justice (750 Kearny Street at Washington),,Columbia Pictures Corp.,Columbia Pictures,Orson Welles,Orson Welles,Rita Hayworth,Orson Welles,Everett Sloane,CA,San Francisco,POINT (-122.4042071 37.7951279),3,2026-02-20T16:44:43.000,Chinatown,-122.4042071,2026-02-20T16:37:46.000,37.7951279
"Looking ""Special""",2016,1080 Natoma Street,,"Mission Street Productions, LLC",HBO,Andrew Haigh,Michael Lannan,Jonathan Groff,Frankie Alvarez,Murray Bartlett,CA,San Francisco,POINT (-122.4171274 37.7726957),6,2026-02-20T16:44:43.000,Mission,-122.4171274,2026-02-20T16:37:46.000,37.7726957
How Stella Got Her Groove Back,1998,Marriot Hotel (55 4th Street at Market),,Twentieth Century Fox Film Corporation,Twentieth Century Fox Film Corporation,Kevin Rodney Sullivan,Terry McMillan,Angela Bassett,Taye Diggs,,CA,San Francisco,POINT (-122.4046809 37.785128),6,2026-02-20T16:44:43.000,Financial District/South Beach,-122.4046809,2026-02-20T16:37:46.000,37.785128
Freebie and the Bean,1974,"Steinhart Aquarium (California Academy of Sciences, Golden Gate Park)","The Steinhart Aquarium is home to over 38,000 animals, which represent more than 900 species.",Warner Bros. Pictures,American Broadcasting Company (ABC),Richard Rush,Robert Kaufman,Alan Arkin,James Caan,Loretta Swit,CA,San Francisco,POINT (-122.4661345 37.7695812),7,2026-02-20T16:44:43.000,Golden Gate Park,-122.4661345,2026-02-20T16:37:46.000,37.7695812
Looking,2014,Valencia St. from 16th to 17th,,"Mission Street Productions, LLC",Home Box Office (HBO),Andrew Haigh,Michael Lannan,Jonathan Groff,Frankie J. Alvarez,Murray Bartlett,CA,San Francisco,POINT (-122.422184 37.7648283),9,2026-02-20T16:44:43.000,Mission,-122.422184,2026-02-20T16:37:46.000,37.7648283
The Phone/Jexi,2019,Tamarind Hall - 1268 Grant Ave,,CBS Films Inc.,Lionsgate,"Jon Lucas, Scott Moore","Jon Lucas, Scott Moore",Adam Devine,Alexandra Shipp,Michael Pena,CA,San Francisco,POINT (-122.4070356 37.7986865),3,2026-02-20T16:44:43.000,North Beach,-122.4070356,2026-02-20T16:37:46.000,37.7986865
Fairyland,2023,Alabama Street at 23rd Street,,Portals of the Past LLC,Lionsgate,Andrew Durham,Andrew Durham,Emilia Jones,Scoot McNairy,Geena Davis,CA,San Francisco,POINT (-122.411144 37.7543015),9,2026-02-20T16:44:43.000,Mission,-122.411144,2026-02-20T16:37:46.000,37.7543015
Shit and Champagne,2020,Cargo Way at Jenning St,,"Shaboom Boom, LLC",,D'Arcy Drollinger,D'Arcy Drollinger,D'Arcy Drollinger,Matthew Martin,Steven LeMay,CA,San Francisco,POINT (-122.3769148 37.7401689),10,2026-02-20T16:44:43.000,Bayview Hunters Point,-122.3769148,2026-02-20T16:37:46.000,37.7401689
Venom,2018,Edinburgh Castle (950 Geary Street),,"L.O.Z. Productions, Inc.","Columbia Pictures, Sony Pictures Releasing",Ruben Fleischer,"Jeff Pinkner, Scott Rosenberg",Tom Hardy,Michelle Wiliams,Riz Ahmed,CA,San Francisco,POINT (-122.4189908 37.7862658),3,2026-02-20T16:44:43.000,Tenderloin,-122.4189908,2026-02-20T16:37:46.000,37.7862658
Good NeighborSam,1964,Various locations in San Francisco during driving scene,,Columbia Pictures Corporation,Columbia Pictures,David Swift,James Fritzell,Jack Lemmon,Romy Schneider,Dorothy Provine,CA,San Francisco,POINT (-122.47709 37.8106117),2,2026-02-20T16:44:43.000,Presidio,-122.47709,2026-02-20T16:37:46.000,37.8106117
George of the Jungle,1997,The Tamalpais Building (1201 Greenwich Street at Hyde),,Walt Disney Pictures,Buena Vista Pictures,Sam Weisman,Jay Ward,Brendan Fraser,Leslie Mann,,CA,San Francisco,POINT (-122.4197304 37.8007671),3,2026-02-20T16:44:43.000,Russian Hill,-122.4197304,2026-02-20T16:37:46.000,37.8007671
The Matrix Resurrections,2021,"The Avery, 488 Folsom",,"Adobe Pictures, Inc.",Warner Brothers,Lana Wachowski,"Lana Wachowski, David Mitchell, Aleksander Hemon",Keanu Reeves,Keanu Reeves,Neil Patrick Harris,CA,San Francisco,POINT (-122.39454 37.7876543),6,2026-02-20T16:44:43.000,Financial District/South Beach,-122.39454,2026-02-20T16:37:46.000,37.7876543
The OA Part II,2019,Washington btwn Gough and Octavia St,,Lunar Mining LLC,Netflix,Zal Batmanglij,"Zal Batmanglij, Brit Marling",Brit Marling,Emory Cohen,Patrick Gibson,CA,San Francisco,POINT (-122.4261279 37.7909216),2,2026-02-20T16:44:43.000,Pacific Heights,-122.4261279,2026-02-20T16:37:46.000,37.7909216
Surface Season 1,2022,Mason St. at California St.,,"Apple Studios, LLC",Apple TV+,Sam Miller,"Veronica West, Erica L. Anderson,Tony Saltzman, Glenise Mullins, Leigh Ann Biety, Dan Lee West, Leigh Ann Biety & Raven Jackson, Martín Zimmerman",Gugu Mbatha-Raw,Oliver Jackson-Cohen,Stephan James,CA,San Francisco,POINT (-122.4108452 37.7918443),3,2026-02-20T16:44:43.000,Nob Hill,-122.4108452,2026-02-20T16:37:46.000,37.7918443
A Smile Like Yours,1997,Grace Cathedral Episcopal Church (1100 California Street),Grace Cathedral Episcopal Church is the West Coast's largest Episcopalian cathedral.,Paramount Pictures,Paramount Pictures,Keith Samples,Keith Samples & Kevin Meyer,Greg Kinnear,Lauren Holly,,CA,San Francisco,POINT (-122.4133739 37.7918593),3,2026-02-20T16:44:43.000,Nob Hill,-122.4133739,2026-02-20T16:37:46.000,37.7918593
"Murder in the First, Season 3",2016,Hall of Justice (850 Bryant Street),,Turner North Center Productions,Turner Network Television (TNT),Steven Bochcho,Eric Lodal,Taye Diggs,Kathleen Robertson,Ian Anthony Dale,CA,San Francisco,POINT (-122.4041754 37.7761709),6,2026-02-20T16:44:43.000,South of Market,-122.4041754,2026-02-20T16:37:46.000,37.7761709
I’m A Virgo,2023,"Fairmont Hotel, 950 Mason Street",,Bing Bang Productions Inc,Prime Video,Boots Riley,Boots Riley,Jharrel Jerome,Mike Epps,Carmen Ejogo,CA,San Francisco,POINT (-122.4100923 37.7923883),3,2026-02-20T16:44:43.000,Nob Hill,-122.4100923,2026-02-20T16:37:46.000,37.7923883
After the Hunt,2024,Mason St. between California and Sacramento St,,Big Indie Helios Inc.,Amazon MGM Studios,Luca Guadagnino,Nora Garrett,Julia Roberts,Ayo Edebiri,Andrew Garfield,CA,San Francisco,POINT (-122.411044 37.7919072),3,2026-02-20T16:44:43.000,Nob Hill,-122.411044,2026-02-20T16:37:46.000,37.7919072
The OA Part II,2019,Waverly Pl btwn Washington and Clay St,,Lunar Mining LLC,Netflix,Zal Batmanglij,"Zal Batmanglij, Brit Marling",Brit Marling,Emory Cohen,Patrick Gibson,CA,San Francisco,POINT (-122.4069298 37.7950135),3,2026-02-20T16:44:43.000,Chinatown,-122.4069298,2026-02-20T16:37:46.000,37.7950135
A Taiwanese Tale of Two Cities,2018,Fulton St at Larkin St,,Envision Productions Inc.,Netflix,Tien-Lun Yeh,"Ling-Hui Chen, Nancy Chen, Chih-Chi Fan, Chia-Hui Lin",Tammy Cheng,Peggy Tseng,Shen-Hao Wen,CA,San Francisco,POINT (-122.4168378 37.779593),5,2026-02-20T16:44:43.000,Tenderloin,-122.4168378,2026-02-20T16:37:46.000,37.779593
Dope Queens,2025,Larkin Street between Bush and Geary,,TomorrowLand Productions Co Inc.,TBD,Grafton Reyes Doyle,Grafton Reyes Doyle,Alexandra Grey,Pierson Fodé,Trace Lysette,CA,San Francisco,POINT (-122.4186414 37.7861255),3,2026-02-20T16:44:43.000,Tenderloin,-122.4186414,2026-02-20T16:37:46.000,37.7861255
Metro,1997,Bush Street at Jones,,Touchstone Pictures,Buena Vista Pictures,Thomas Carter,Randy Feldman,Eddie Murphy,,,CA,San Francisco,POINT (-122.4137459 37.7895412),3,2026-02-20T16:44:43.000,Nob Hill,-122.4137459,2026-02-20T16:37:46.000,37.7895412
Sense8,2015,Folsom,Driving shots,"Unpronounceable Productions, LLC",Netflix,The Wachowskis,The Wachowskis,Jamie Clayton,,,CA,San Francisco,POINT (-122.4149402 37.7612212),9,2026-02-20T16:44:43.000,Mission,-122.4149402,2026-02-20T16:37:46.000,37.7612212
The OA Part II,2019,724 Larkin St,,Lunar Mining LLC,Netflix,Zal Batmanglij,"Zal Batmanglij, Brit Marling",Brit Marling,Emory Cohen,Patrick Gibson,CA,San Francisco,POINT (-122.4175821 37.7846455),5,2026-02-20T16:44:43.000,Tenderloin,-122.4175821,2026-02-20T16:37:46.000,37.7846455
Haiku Tunnel,2001,,,Hello Hooker Productions,Sony Pictures Classics,Jakob Kornbluth & Josh Kornbluth,Jakob Kornbluth & Josh Kornbluth,Josh Kornbluth,Warren Keith,,CA,San Francisco,,,2026-02-20T16:44:43.000,,,2026-02-20T16:37:46.000,
Chance- Season 1 ep109,2016,"Cliffhouse, 1090 Point Lobos Ave.",,TVM Productions,HULU,Sara Gran and Pete Begler,Dan Attias,Hugh Laurie,Gretchen Mol,Ethan Suplee,CA,San Francisco,POINT (-122.5137962 37.7783123),1,2026-02-20T16:44:43.000,Outer Richmond,-122.5137962,2026-02-20T16:37:46.000,37.7783123
Chance- Season 1 ep104,2016,Miraloma Mall at Portola Frontage Road,,TVM Productions,HULU,Carl Franklin,Peter Elkoff,Hugh Laurie,Gretchen Mol,Ethan Suplee,CA,San Francisco,POINT (-122.4536757 37.7437508),7,2026-02-20T16:44:43.000,West of Twin Peaks,-122.4536757,2026-02-20T16:37:46.000,37.7437508
Ant-Man and the Wasp,2018,Leavenworth St at Lombard St,,"PYM Particles Productions II, LLC",Walt Disney Studios Motion Pictures,Peyton Reed,Chris McKenna,Paul Rudd,Evangeline Lilly,Michael Douglas,CA,San Francisco,POINT (-122.417993 37.8022173),3,2026-02-20T16:44:43.000,Russian Hill,-122.417993,2026-02-20T16:37:46.000,37.8022173
Quitters,2015,1536 Noe St.,,"Frederick & Ashbury, LLC.",,Noah Pritzker,Noah Pritzker,Kara Hayward,Mira Sorvino,Saffron Burrows,CA,San Francisco,POINT (-122.4314352 37.7444875),8,2026-02-20T16:44:43.000,Noe Valley,-122.4314352,2026-02-20T16:37:46.000,37.7444875
The Net,1995,Montgomery & Market Streets,,Columbia Pictures Corp.,Columbia Pictures,Irwin Winkler,John Brancato,Sandra Bullock,Jeremy Northam,,CA,San Francisco,POINT (-122.4019961 37.7888143),3,2026-02-20T16:44:43.000,Financial District/South Beach,-122.4019961,2026-02-20T16:37:46.000,37.7888143
Boys and Girls,2000,Fisherman's Wharf,"Supposedly, Mikhail S. Gorbachev has said that his favorite part of visiting America was touring Fisherman's Wharf.",Punch 21 Productions,Dimension Films,Robert Iscove,The Drews,"Freddie Prinze, Jr.",Alyson Hannigan,,CA,San Francisco,POINT (-122.4125282 37.8085771),3,2026-02-20T16:44:43.000,North Beach,-122.4125282,2026-02-20T16:37:46.000,37.8085771
Nash Bridges,2022,"Pier 7, San Francisco",,"Village NB Productions, LLC",USA Nework,Greg Beeman,"Carlton Cuse, Bill Chais",Don Johnson,Cheech Marin,Joe Dinicol,CA,San Francisco,POINT (-122.3956409 37.7993521),3,2026-02-20T16:44:43.000,Financial District/South Beach,-122.3956409,2026-02-20T16:37:46.000,37.7993521
A Taiwanese Tale of Two Cities,2018,Pier 5,,Envision Productions Inc.,Netflix,Tien-Lun Yeh,"Ling-Hui Chen, Nancy Chen, Chih-Chi Fan, Chia-Hui Lin",Tammy Cheng,Peggy Tseng,Shen-Hao Wen,CA,San Francisco,POINT (-122.3960343 37.7980698),,2026-02-20T16:44:43.000,,-122.3960343,2026-02-20T16:37:46.000,37.7980698
The Matrix Resurrections,2021,"Joe & The Juice, 235 Montgomery",,"Adobe Pictures, Inc.",Warner Brothers,Lana Wachowski,"Lana Wachowski, David Mitchell, Aleksander Hemon",Keanu Reeves,Keanu Reeves,Neil Patrick Harris,CA,San Francisco,POINT (-122.4028796 37.7913674),3,2026-02-20T16:44:43.000,Financial District/South Beach,-122.4028796,2026-02-20T16:37:46.000,37.7913674
Knife Fight,2013,City Hall,,Divisadero Pictures & Knife Fight,Eagle Films,Bill Guttentag,Bill Guttentag & Chris Lehane,Rob Lowe,Julie Bowen,Jamie Chung,CA,San Francisco,POINT (-122.4192417 37.779275),5,2026-02-20T16:44:43.000,Tenderloin,-122.4192417,2026-02-20T16:37:46.000,37.779275
I Am Michael,2015,Sanchez/Cumberland steps and sidewalks,,That’s Hollywood,,Justin Kelly,Justin Kelly,James Franco,Emma Roberts,Zachary Quinto,CA,San Francisco,POINT (-122.4304368 37.7593234),8,2026-02-20T16:44:43.000,Castro/Upper Market,-122.4304368,2026-02-20T16:37:46.000,37.7593234
The Internship,2013,Epic Roasthouse,,Twentieth Century Fox Film Corporation,Twentieth Century Fox Film Corporation,Shawn Levy,Vince Vaughn,Vince Vaughn,Owen Wilson,Rose Byrne,CA,San Francisco,POINT (-122.3894682 37.7908723),6,2026-02-20T16:44:43.000,Financial District/South Beach,-122.3894682,2026-02-20T16:37:46.000,37.7908723
The Last Black Man in San Francisco,2019,Shotwell St btwn 20th and 21st St,,"LBMISF, LLC",A24,Joe Talbot,"Joe Talbot, Jimmie Fails, Rob Richert",Jimmie Fails,Jonathan Majors,Danny Glover,CA,San Francisco,POINT (-122.4156566 37.7587433),9,2026-02-20T16:44:43.000,Mission,-122.4156566,2026-02-20T16:37:46.000,37.7587433
Nash Bridges,2021,"Pier 28, Hi-Dive",,"Village NB Productions, LLC",USA Nework,Greg Beeman,"Carlton Cuse, Bill Chais",Don Johnson,Cheech Marin,Joe Dinicol,CA,San Francisco,POINT (-122.3874602 37.7876462),6,2026-02-20T16:44:43.000,Financial District/South Beach,-122.3874602,2026-02-20T16:37:46.000,37.7876462
Looking Season 2 ep 203,2015,"Willy's Barber shop, 3227 22nd Street",,"Mission Street Productions, LLC",HBO,Andrew Haigh,Michael Lannan,Jonathan Groff,Frankie Alvarez,Murray Bartlett,CA,San Francisco,POINT (-122.4195427 37.7552119),9,2026-02-20T16:44:43.000,Mission,-122.4195427,2026-02-20T16:37:46.000,37.7552119
Blue Jasmine,2013,Motel Capri,,Perdido Productions,Sony Pictures Classics,Woody Allen,Woody Allen,Cate Blanchett,Alec Baldwin,Peter Sarsgaard,CA,San Francisco,POINT (-122.433029 37.799185),2,2026-02-20T16:44:43.000,Marina,-122.433029,2026-02-20T16:37:46.000,37.799185
"Murder in the First, Season 2",2015,Boardman Place between Bryant and Brannan Streets,,Turner North Center Productions,Turner Network Television (TNT),Steven Bochcho,Eric Lodal,Taye Diggs,Kathleen Robertson,Ian Anthony Dale,CA,San Francisco,POINT (-122.4031929 37.7750493),6,2026-02-20T16:44:43.000,South of Market,-122.4031929,2026-02-20T16:37:46.000,37.7750493
"Smile Again, Jenny Lee",2015,475 Diamond St.,,Carlo Caldana/Marguery Films,,Carlo Caldana,Linda Demetrick,Craig Tsuyumine,Puneet Prasad,Larry Kitagawa,CA,San Francisco,POINT (-122.4365274 37.7548862),8,2026-02-20T16:44:43.000,Noe Valley,-122.4365274,2026-02-20T16:37:46.000,37.7548862
Point Blank,1967,Alcatraz Island,Alcatraz Island was a military fort before it became a prison.,Metro-Goldwyn Mayer,Metro-Goldwyn Mayer,John Boorman,Alexander Jacobs,Lee Marvin,Angie Dickinson,Keenan Wynn,CA,San Francisco,POINT (-122.4230122 37.8266636),,2026-02-20T16:44:43.000,,-122.4230122,2026-02-20T16:37:46.000,37.8266636
When We Rise,2017,"Castro Theatre, 429 Castro St.",,Film 49 Productions,Amercian Broadcasting Company,Gus Van Sant,Dustin Lance Black,Guy Pierce,Mary-Louise Parker,Michael Kenneth Williams,CA,San Francisco,POINT (-122.4347365 37.7619917),8,2026-02-20T16:44:43.000,Castro/Upper Market,-122.4347365,2026-02-20T16:37:46.000,37.7619917
The Last Black Man in San Francisco,2019,Eddy St btwn Leavenworth and Hyde St,,"LBMISF, LLC",A24,Joe Talbot,"Joe Talbot, Jimmie Fails, Rob Richert",Jimmie Fails,Jonathan Majors,Danny Glover,CA,San Francisco,POINT (-122.413964 37.783682),5,2026-02-20T16:44:43.000,Tenderloin,-122.413964,2026-02-20T16:37:46.000,37.783682
Chance Season 2,2017,Marina Blvd between Baker and Fillmore St,,TVM Productions Inc.,Hulu,Rozann Dawson,Alexandra Cunningham,Hugh Laurie,Greta Lee,Ethan Suplee,CA,San Francisco,POINT (-122.439016 37.8066961),2,2026-02-20T16:44:43.000,Marina,-122.439016,2026-02-20T16:37:46.000,37.8066961
The Enforcer,1976,Balmy Street (Mission District),,Warner Bros. Pictures,Warner Bros. Pictures,James Fargo,Stirling Silliphant,Clint Eastwood,Tyne Daly,Harry Guardino,CA,San Francisco,POINT (-122.4124144 37.7518258),9,2026-02-20T16:44:43.000,Mission,-122.4124144,2026-02-20T16:37:46.000,37.7518258
GirlBoss,2017,"Mission Dolores Park, 19th St. & Dolores St.","After the devastating earthquake of 1906, the park served as a refugee camp for more than 1600 families who lost their home in the disaster.","Hippolyta Productions, LLC",Netflix,"Jamie Babbit, Amanda Brotchie, Steven K. Tsuchida, Christian Ditter, John Riggi",Kay Cannon,Britt Robertson,Ellie Reed,Amanda Rea,CA,San Francisco,POINT (-122.4266135 37.7608223),8,2026-02-20T16:44:43.000,Castro/Upper Market,-122.4266135,2026-02-20T16:37:46.000,37.7608223
Pushing Dead,2016,Hayes Street between Ashbury and Shrader,,"Pushing Dead , LLC",TBD,Tom Brown,Tom Brown,Danny Glover,James Roday,Robin Weigert,CA,San Francisco,POINT (-122.452502 37.77317),5,2026-02-20T16:44:43.000,Lone Mountain/USF,-122.452502,2026-02-20T16:37:46.000,37.77317
"Smile Again, Jenny Lee",2015,87 Cervantes Blvd (beach),,Carlo Caldana/Marguery Films,,Carlo Caldana,Linda Demetrick,Craig Tsuyumine,Puneet Prasad,Larry Kitagawa,CA,San Francisco,POINT (-122.4389872 37.803747),2,2026-02-20T16:44:43.000,Marina,-122.4389872,2026-02-20T16:37:46.000,37.803747
The Game,1997,1 Bush Street,,Polygram Filmed Entertainment,Polygram Filmed Entertainment,David Fincher,John Brancato,Michael Douglas,Sean Penn,Deborah Kara Unger,CA,San Francisco,POINT (-122.4000474 37.7910468),3,2026-02-20T16:44:43.000,Financial District/South Beach,-122.4000474,2026-02-20T16:37:46.000,37.7910468
Red Widow,2013,Vallejo Street Garage,,Beyond Pix,American Broadcasting Company (ABC),Alon Aranya,Melissa Rosenberg,Radha Mitchell,Sterling Beaumon,Clifton Collins Jr.,CA,San Francisco,POINT (-122.4100057 37.79856),3,2026-02-20T16:44:43.000,Chinatown,-122.4100057,2026-02-20T16:37:46.000,37.79856
"Murder in the First, Season 2",2015,372/374 Pennsylvania Avenue,,Turner North Center Productions,Turner Network Television (TNT),Steven Bochcho,Eric Lodal,Taye Diggs,Kathleen Robertson,Ian Anthony Dale,CA,San Francisco,POINT (-122.3938338 37.7618033),10,2026-02-20T16:44:43.000,Potrero Hill,-122.3938338,2026-02-20T16:37:46.000,37.7618033
"Smile Again, Jenny Lee",2015,"Fairmont Hotel (950 Mason Street, Nob Hill)",,Carlo Caldana/Marguery Films,,Carlo Caldana,Linda Demetrick,Craig Tsuyumine,Puneet Prasad,Larry Kitagawa,CA,San Francisco,POINT (-122.4100923 37.7923883),3,2026-02-20T16:44:43.000,Nob Hill,-122.4100923,2026-02-20T16:37:46.000,37.7923883
Americana,2015,Romolo Place @ Fresno St.,,Sutro Films LLC,,Zachary Shedd,Zachary Shedd,Kelli Garner,Jack Davenport,Peter Coyote,CA,San Francisco,POINT (-122.4063952 37.7986067),3,2026-02-20T16:44:43.000,North Beach,-122.4063952,2026-02-20T16:37:46.000,37.7986067
Fremont,2023,720 Grant Avenue,,Fremont The Movie LLC,Music Box Films,Babak Jalali,"Carolina Cavalli, Babak Jalali",Anaita Wali Zada,Gregg Turkington,Jeremy Allen White,CA,San Francisco,POINT (-122.4060745 37.7937557),3,2026-02-20T16:44:43.000,Chinatown,-122.4060745,2026-02-20T16:37:46.000,37.7937557
The Last Thing He Told Me,2023,Oracle Park,,20th Television,Apple TV+,"Olivia Newman, Deniz Gamze Ergüven, Daisy Von Scherler Mayer, Lila Neugebauer",Laura Dave,Jennifer Garner,Angourie Rice,Aisha Tyler,CA,San Francisco,POINT (-122.3892168 37.7784136),6,2026-02-20T16:44:43.000,Mission Bay,-122.3892168,2026-02-20T16:37:46.000,37.7784136
Venom,2018,Geary St at Leavenworth St,,"L.O.Z. Productions, Inc.","Columbia Pictures, Sony Pictures Releasing",Ruben Fleischer,"Jeff Pinkner, Scott Rosenberg",Tom Hardy,Michelle Wiliams,Riz Ahmed,CA,San Francisco,POINT (-122.4148268 37.7865283),3,2026-02-20T16:44:43.000,Tenderloin,-122.4148268,2026-02-20T16:37:46.000,37.7865283
"Murder in the First, Season 3",2016,Civic Center Plaza,,Turner North Center Productions,Turner Network Television (TNT),Steven Bochcho,Eric Lodal,Taye Diggs,Kathleen Robertson,Ian Anthony Dale,CA,San Francisco,POINT (-122.4176986 37.7794929),5,2026-02-20T16:44:43.000,Tenderloin,-122.4176986,2026-02-20T16:37:46.000,37.7794929
The OA Part II,2019,Washington at Taylor St - Jackson St,,Lunar Mining LLC,Netflix,Zal Batmanglij,"Zal Batmanglij, Brit Marling",Brit Marling,Emory Cohen,Patrick Gibson,CA,San Francisco,POINT (-122.4128965 37.7942941),3,2026-02-20T16:44:43.000,Nob Hill,-122.4128965,2026-02-20T16:37:46.000,37.7942941
Terminator - Genisys,2015,Pine St. between Market and Kearny,,T5 Productions LLC,Paramount Pictures,Alan Taylor,James Cameron,Arnold Schwarzenegger,Jason Clarke,,CA,San Francisco,POINT (-122.4032 37.78793),6,2026-02-20T16:44:43.000,Financial District/South Beach,-122.4032,2026-02-20T16:37:46.000,37.78793
Chance Season 2,2017,Embarcadero between Bay and Chestnut St,,TVM Productions Inc.,Hulu,Rozann Dawson,Alexandra Cunningham,Hugh Laurie,Greta Lee,Ethan Suplee,CA,San Francisco,POINT (-122.406061 37.806607),3,2026-02-20T16:44:43.000,North Beach,-122.406061,2026-02-20T16:37:46.000,37.806607
Tales of the City,2019,Market and Church St,,Universal Television LLC,Netflix,"Alan Poul, Silas Howard, Stacie Passon","Armistead Maupin, Lauren Morelli, Hansol Jung, Marcus Gardley",Laura Linney,Ellen Page,Murray Bartlett,CA,San Francisco,POINT (-122.428974 37.7674063),8,2026-02-20T16:44:43.000,Castro/Upper Market,-122.428974,2026-02-20T16:37:46.000,37.7674063
Sense8,2015,S. Van Ness,Driving shots,"Unpronounceable Productions, LLC",Netflix,The Wachowskis,The Wachowskis,Jamie Clayton,,,CA,San Francisco,POINT (-122.4171883 37.7617459),9,2026-02-20T16:44:43.000,Mission,-122.4171883,2026-02-20T16:37:46.000,37.7617459
The Phone/Jexi,2019,3200 16th St at Guerrero,,CBS Films Inc.,Lionsgate,"Jon Lucas, Scott Moore","Jon Lucas, Scott Moore",Adam Devine,Alexandra Shipp,Michael Pena,CA,San Francisco,POINT (-122.424317 37.764992),8,2026-02-20T16:44:43.000,Mission,-122.424317,2026-02-20T16:37:46.000,37.764992
"Smile Again, Jenny Lee",2015,Greenwich St at Battery St,,Carlo Caldana/Marguery Films,,Carlo Caldana,Linda Demetrick,Craig Tsuyumine,Puneet Prasad,Larry Kitagawa,CA,San Francisco,POINT (-122.4020222 37.8032531),3,2026-02-20T16:44:43.000,Financial District/South Beach,-122.4020222,2026-02-20T16:37:46.000,37.8032531
Shit and Champagne,2020,2644 Mission St,,"Shaboom Boom, LLC",,D'Arcy Drollinger,D'Arcy Drollinger,D'Arcy Drollinger,Matthew Martin,Steven LeMay,CA,San Francisco,POINT (-122.4190634 37.7547213),9,2026-02-20T16:44:43.000,Mission,-122.4190634,2026-02-20T16:37:46.000,37.7547213
Innerspace,1987,Telegraph Hill,"Largely untouched by the 1906 earthquake, Telegraph Hill has the most pre-1870 buildings in the city.",Amblin Entertainment,Warner Bros. Pictures,Joe Dante,Chip Proser,Dennis Quaid,Martin Short,Meg Ryan,CA,San Francisco,POINT (-122.4052612 37.8009425),3,2026-02-20T16:44:43.000,North Beach,-122.4052612,2026-02-20T16:37:46.000,37.8009425
Foul Play,1978,Octavia & Hayes Streets (Hayes Valley),,Paramount Pictures,Paramount Pictures,Colin Higgins,Colin Higgins,Goldie Hawn,Chevy Chase,Burgess Meredith,CA,San Francisco,POINT (-122.4246518 37.7766803),5,2026-02-20T16:44:43.000,Hayes Valley,-122.4246518,2026-02-20T16:37:46.000,37.7766803
Steve Jobs,2015,Intersection of Clay St. and Walter U Lum Plc,,RDF Productions LLC,Universal Pictures,Danny Boyle,Aaron Sorkin,Michael Fassbender,Kate Winslet,Seth Rogen,CA,San Francisco,POINT (-122.4039816 37.7947023),3,2026-02-20T16:44:43.000,Chinatown,-122.4039816,2026-02-20T16:37:46.000,37.7947023
Looking Season 2 ep 209,2015,1246 Folsom Street,,"Mission Street Productions, LLC",HBO,Andrew Haigh,Michael Lannan,Jonathan Groff,Frankie Alvarez,Murray Bartlett,CA,San Francisco,POINT (-122.411015 37.7746),6,2026-02-20T16:44:43.000,South of Market,-122.411015,2026-02-20T16:37:46.000,37.7746
Always Be My Maybe,2019,Palace of Fine Arts (3301 Lyon Street),,"Isla Productions, LLC",Netflix,Nahnatchka Khan,"Michael Golamco, Randall Park, Ali Wong",Ali Wong,Randall Park,Keanu Reeves,CA,San Francisco,POINT (-122.4491285 37.8026694),2,2026-02-20T16:44:43.000,Marina,-122.4491285,2026-02-20T16:37:46.000,37.8026694
Tales of the City,2019,Montgomery and Vallejo,,Universal Television LLC,Netflix,"Alan Poul, Silas Howard, Stacie Passon","Armistead Maupin, Lauren Morelli, Hansol Jung, Marcus Gardley",Laura Linney,Ellen Page,Murray Bartlett,CA,San Francisco,POINT (-122.4040755 37.7991868),3,2026-02-20T16:44:43.000,North Beach,-122.4040755,2026-02-20T16:37:46.000,37.7991868
DEVS,2020,21st St at San Carlos,,Minim Productions,FX Network,Alex Garland,Alex Garland,Sonoya Mizuno,Nick Offerman,Jin Ha,CA,San Francisco,POINT (-122.4197149 37.7570015),9,2026-02-20T16:44:43.000,Mission,-122.4197149,2026-02-20T16:37:46.000,37.7570015
The Phone/Jexi,2019,1423 Golden Gate Ave,,CBS Films Inc.,Lionsgate,"Jon Lucas, Scott Moore","Jon Lucas, Scott Moore",Adam Devine,Alexandra Shipp,Michael Pena,CA,San Francisco,POINT (-122.4341795 37.7791726),5,2026-02-20T16:44:43.000,Western Addition,-122.4341795,2026-02-20T16:37:46.000,37.7791726
Magnum Force,1973,San Francisco Drydock (20th and Illinois Streets),,The Malpaso Company,Warner Bros. Pictures,Ted Post,John Milius,Clint Eastwood,Hal Holbrook,Mitchell Ryan,CA,San Francisco,POINT (-122.3866097 37.760628),10,2026-02-20T16:44:43.000,Potrero Hill,-122.3866097,2026-02-20T16:37:46.000,37.760628
Surface,2022,Francisco Street between Leavenworth and Hyde,,"Apple Studios, LLC",Apple TV+,"Sam Miller, Kevin Rodney Sullivan, Jennifer Morrison, Tucker Gates","Veronica West, Erica L. Anderson,Tony Saltzman, Glenise Mullins, Leigh Ann Biety, Dan Lee West, Leigh Ann Biety & Raven Jackson, Martín Zimmerman",Gugu Mbatha-Raw,Oliver Jackson-Cohen,Ari Graynor,CA,San Francisco,POINT (-122.4175714 37.7909544),3,2026-02-20T16:44:43.000,Nob Hill,-122.4175714,2026-02-20T16:37:46.000,37.7909544
Cardinal X,2015,420 Mason St.,,Fire Horse Film Productions LLC,,Annie Wang,Annie Wang,Annie Q,Francesca Eastwood,Pierson Fode,CA,San Francisco,POINT (-122.4098403 37.7875748),3,2026-02-20T16:44:43.000,Tenderloin,-122.4098403,2026-02-20T16:37:46.000,37.7875748
Red Widow,2013,York & 24th St.,,Beyond Pix,American Broadcasting Company (ABC),Alon Aranya,Melissa Rosenberg,Radha Mitchell,Sterling Beaumon,Clifton Collins Jr.,CA,San Francisco,POINT (-122.4184682 37.7522505),9,2026-02-20T16:44:43.000,Mission,-122.4184682,2026-02-20T16:37:46.000,37.7522505
Vertigo,1958,Brocklebank Apartments (1000 Mason Street),,Alfred J. Hitchcock Productions,Paramount Pictures,Alfred Hitchcock,Alec Coppel,James Stewart,Kim Novak,Barbara Bel Geddes,CA,San Francisco,POINT (-122.4106579 37.7931077),3,2026-02-20T16:44:43.000,Nob Hill,-122.4106579,2026-02-20T16:37:46.000,37.7931077
Fearless,1993,"San Francisco General Hospital Medical Center (1001 Potrero Avenue, Potrero Hill)",SF General Hospital is the only Level I Trauma Center serving San Francisco and northern San Mateo County.,Spring Creek Productions,Warner Bros. Pictures,Peter Weir,Rafael Yglesias,Jeff Bridges,Isabella Rosellini,Rosie Perez,CA,San Francisco,POINT (-122.405629 37.7555919),10,2026-02-20T16:44:43.000,Mission,-122.405629,2026-02-20T16:37:46.000,37.7555919
The Presidio,1988,Washington Street & Waverly Place (Chinatown),,Paramount Pictures,Paramount Pictures,Peter Hyams,Larry Ferguson,Sean Connery,Mark Harmon,Meg Ryan,CA,San Francisco,POINT (-122.4070248 37.7950898),3,2026-02-20T16:44:43.000,Chinatown,-122.4070248,2026-02-20T16:37:46.000,37.7950898
"Murder in the First, Season 2",2015,Grant Avenue between Clay and Washington Streets,,Turner North Center Productions,Turner Network Television (TNT),Steven Bochcho,Eric Lodal,Taye Diggs,Kathleen Robertson,Ian Anthony Dale,CA,San Francisco,POINT (-122.40602 37.79426),3,2026-02-20T16:44:43.000,Chinatown,-122.40602,2026-02-20T16:37:46.000,37.79426
Looking Season 2 ep 203,2015,"Doc's Clock, 2575 Misison Street",,"Mission Street Productions, LLC",HBO,Andrew Haigh,Michael Lannan,Jonathan Groff,Frankie Alvarez,Murray Bartlett,CA,San Francisco,POINT (-122.4186605 37.7559644),9,2026-02-20T16:44:43.000,Mission,-122.4186605,2026-02-20T16:37:46.000,37.7559644
Blue Jasmine,2013,The Ramp Restaurant,,Perdido Productions,Sony Pictures Classics,Woody Allen,Woody Allen,Cate Blanchett,Alec Baldwin,Peter Sarsgaard,CA,San Francisco,POINT (-122.3870349 37.7641167),10,2026-02-20T16:44:43.000,Potrero Hill,-122.3870349,2026-02-20T16:37:46.000,37.7641167
Pushing Dead,2016,"Matching Half Café, 1799 McAllister Street",,"Pushing Dead , LLC",TBD,Tom Brown,Tom Brown,Danny Glover,James Roday,Robin Weigert,CA,San Francisco,POINT (-122.4414982 37.7773072),2,2026-02-20T16:44:43.000,Western Addition,-122.4414982,2026-02-20T16:37:46.000,37.7773072
Dope Queens,2025,432 Mason Street,,TomorrowLand Productions Co Inc.,TBD,Grafton Reyes Doyle,Grafton Reyes Doyle,Alexandra Grey,Pierson Fodé,Trace Lysette,CA,San Francisco,POINT (-122.4098767 37.7876607),3,2026-02-20T16:44:43.000,Tenderloin,-122.4098767,2026-02-20T16:37:46.000,37.7876607
"Murder in the First, Season 3",2016,Golden Gate Park,,Turner North Center Productions,Turner Network Television (TNT),Steven Bochcho,Eric Lodal,Taye Diggs,Kathleen Robertson,Ian Anthony Dale,CA,San Francisco,POINT (-122.482977 37.7689203),4,2026-02-20T16:44:43.000,Golden Gate Park,-122.482977,2026-02-20T16:37:46.000,37.7689203
Looking,2014,1890 Clay St.,,"Mission Street Productions, LLC",Home Box Office (HBO),Andrew Haigh,Michael Lannan,Jonathan Groff,Frankie J. Alvarez,Murray Bartlett,CA,San Francisco,POINT (-122.4238729 37.7922528),2,2026-02-20T16:44:43.000,Pacific Heights,-122.4238729,2026-02-20T16:37:46.000,37.7922528
Until the End of the World,1991,"Tosca Café (242 Columbus Avenue, North Beach)",,Village Roadshow Pictures,Warner Bros. Pictures,Wim Wenders,Wim Wenders,Solveig Dommartin,,,CA,San Francisco,POINT (-122.406019 37.7975646),3,2026-02-20T16:44:43.000,North Beach,-122.406019,2026-02-20T16:37:46.000,37.7975646
Women is Losers,2020,119 Vernon St,,Look at the Moon Pictures,,Lissette Feliciano,Lissette Feliciano,Lorenza Izzo,Simu Liu,Liza Weil,CA,San Francisco,POINT (-122.4682944 37.7146885),11,2026-02-20T16:44:43.000,Oceanview/Merced/Ingleside,-122.4682944,2026-02-20T16:37:46.000,37.7146885
Blue Jasmine,2013,2178 Palou Ave.,,Perdido Productions,Sony Pictures Classics,Woody Allen,Woody Allen,Cate Blanchett,Alec Baldwin,Peter Sarsgaard,CA,San Francisco,POINT (-122.4018316 37.7406356),10,2026-02-20T16:44:43.000,Bayview Hunters Point,-122.4018316,2026-02-20T16:37:46.000,37.7406356
High Anxiety,1977,"Fort Point (Presidio, Golden Gate National Recreation Area)","Built in 1853, Fort Point is the only West Coast fort built by the Union Army. Though the Confederate army planned to attack San Francisco, the commanding Confederate general learned that the war had ended while end route to SF.",Twentieth Century Fox Film Corporation,Twentieth Century Fox Film Corporation,Mel Brooks,Mel Brooks,Mel Brooks,Madeline Kahn,Cloris Leachman,CA,San Francisco,POINT (-122.47709 37.8106117),2,2026-02-20T16:44:43.000,Presidio,-122.47709,2026-02-20T16:37:46.000,37.8106117
Fearless,1993,90 Gold Street,,Spring Creek Productions,Warner Bros. Pictures,Peter Weir,Rafael Yglesias,Jeff Bridges,Isabella Rosellini,Rosie Perez,CA,San Francisco,POINT (-122.4034751 37.7967894),3,2026-02-20T16:44:43.000,Chinatown,-122.4034751,2026-02-20T16:37:46.000,37.7967894
Ballers Season 3,2017,Embarcadero around Rincon Park,,"Chori Perros Productions, LLC",HBO,Julian Farino,Stephen Levinson,Dwayne Johnson,John David Washington,Omar Benson Miller,CA,San Francisco,POINT (-122.3899506 37.7916129),6,2026-02-20T16:44:43.000,Financial District/South Beach,-122.3899506,2026-02-20T16:37:46.000,37.7916129
Americana,2015,33 Spruce St,,Sutro Films LLC,,Zachary Shedd,Zachary Shedd,Kelli Garner,Jack Davenport,Peter Coyote,CA,San Francisco,POINT (-122.4544114 37.7903388),2,2026-02-20T16:44:43.000,Presidio Heights,-122.4544114,2026-02-20T16:37:46.000,37.7903388
Chef Dynasty: House of Fang,2022,"Ritz Carlton, 690 Market Street",,"Quidnet Media, LLC",Food Network,,,Lillian Phan,Long Vo,Christy-Anne Lopez,CA,San Francisco,POINT (-122.4030647 37.7882287),3,2026-02-20T16:44:43.000,Financial District/South Beach,-122.4030647,2026-02-20T16:37:46.000,37.7882287
Looking,2014,"Tiburon Hiking Trail, Tiburon, CA",,"Mission Street Productions, LLC",Home Box Office (HBO),Andrew Haigh,Michael Lannan,Jonathan Groff,Frankie J. Alvarez,Murray Bartlett,CA,San Francisco,POINT (-122.4900376 37.8961157),,2026-02-20T16:44:43.000,,-122.4900376,2026-02-20T16:37:46.000,37.8961157
Looking Season 2 ep 202,2015,770 Haight Street,"This home was also used in MILK, Big Sur and Diary of a Teenage Girl","Mission Street Productions, LLC",HBO,Andrew Haigh,Michael Lannan,Jonathan Groff,Frankie Alvarez,Murray Bartlett,CA,San Francisco,POINT (-122.43489 37.771831),5,2026-02-20T16:44:43.000,Haight Ashbury,-122.43489,2026-02-20T16:37:46.000,37.771831
Super Pumped: The Battle for Uber,2022,"650 Howard Street at New Montgomery, Gold Club",,Possible Productions,Showtime,"Allen Coulter, Daniel Gray Longino, John Dahl, Zetna Fuentes","Brian Koppelman & David Levien, Sarah Acosta, Stephen Schiff, Emily Hornsby, Safie M. Dirie, Beth Schacter",Joseph Gordon-Levitt,Kyle Chandler,Kerry Bishé,CA,San Francisco,POINT (-122.3996934 37.7859444),6,2026-02-20T16:44:43.000,Financial District/South Beach,-122.3996934,2026-02-20T16:37:46.000,37.7859444
Bitter Melon,2018,788 Minna St,,Bitter Melon Film LLC/Mammoth Pictures,"ABS-CBN, Gravitas Ventures",H.P. Mendoza,H.P. Mendoza,Jon Norman Schneider,Patrick Epino,Brian Rivera,CA,San Francisco,POINT (-122.4140958 37.7760491),6,2026-02-20T16:44:43.000,South of Market,-122.4140958,2026-02-20T16:37:46.000,37.7760491
San Andreas,2015,Grant St. at Bush St.,Characters walk down street and it's totally wrecked from a massive earthquake,"Upside Down Productions, Inc.",Warner Bros.,Brad Peyton,Allan Loeb,Dwayne Johnson,,,CA,San Francisco,POINT (-122.4055626 37.7905824),3,2026-02-20T16:44:43.000,Financial District/South Beach,-122.4055626,2026-02-20T16:37:46.000,37.7905824
Foul Play,1978,24th and Castro Streets (Noe Valley),,Paramount Pictures,Paramount Pictures,Colin Higgins,Colin Higgins,Goldie Hawn,Chevy Chase,Burgess Meredith,CA,San Francisco,POINT (-122.4341129 37.7513041),8,2026-02-20T16:44:43.000,Noe Valley,-122.4341129,2026-02-20T16:37:46.000,37.7513041
The Dead Pool,1988,"Eber Electronics (2355 Market Street, Castro)",,Warner Bros. Pictures,Warner Bros. Pictures,Buddy Van Horn,Harry Julian Fink,Clint Eastwood,Liam Neeson,Patricia Clarkson,CA,San Francisco,POINT (-122.4342344 37.7628182),8,2026-02-20T16:44:43.000,Castro/Upper Market,-122.4342344,2026-02-20T16:37:46.000,37.7628182
Goliath,2021,50 Mountain Spring Road,,Amazon Studios,Amazon Prime Video,Lawrence Trilling,Jennifer Ames,J.K. Simmons,Jena Malone,Lenora Crichlow,CA,San Francisco,POINT (-122.4497164 37.7583538),7,2026-02-20T16:44:43.000,Twin Peaks,-122.4497164,2026-02-20T16:37:46.000,37.7583538
Fearless,1993,"St. Peter & Paul's Church (666 Filbert Street, Washington Square)","Though Marilyn Monroe and Joe DiMaggio were not allowed to be married at the Church (DiMaggio had married his first wife at the Church but was divorced), the couple returned to the steps of the Church for photos, following their City Hall nuptials.",Spring Creek Productions,Warner Bros. Pictures,Peter Weir,Rafael Yglesias,Jeff Bridges,Isabella Rosellini,Rosie Perez,CA,San Francisco,POINT (-122.4101808 37.8016649),3,2026-02-20T16:44:43.000,North Beach,-122.4101808,2026-02-20T16:37:46.000,37.8016649
The Dead Pool,1988,20th & De Haro Streets (Potrero Hill),,Warner Bros. Pictures,Warner Bros. Pictures,Buddy Van Horn,Harry Julian Fink,Clint Eastwood,Liam Neeson,Patricia Clarkson,CA,San Francisco,POINT (-122.4011149 37.7597474),10,2026-02-20T16:44:43.000,Potrero Hill,-122.4011149,2026-02-20T16:37:46.000,37.7597474
Fandom,2004,,,The Digital Golem,Cinequest Distribution,Nicholas Tucker,Nicholas Tucker & Mark Hefti,Mark Hefti,Peter Quintana,,CA,San Francisco,,,2026-02-20T16:44:43.000,,,2026-02-20T16:37:46.000,
Shit and Champagne,2020,1814 32nd Ave,,"Shaboom Boom, LLC",,D'Arcy Drollinger,D'Arcy Drollinger,D'Arcy Drollinger,Matthew Martin,Steven LeMay,CA,San Francisco,POINT (-122.4902199 37.7532947),4,2026-02-20T16:44:43.000,Sunset/Parkside,-122.4902199,2026-02-20T16:37:46.000,37.7532947
A View to a Kill,1985,City Hall,"The dome of SF's City Hall is almost a foot taller than that of the US Capitol Building. In 1954, Joe DiMaggio and Marilyn Monroe married at the Beaux Arts-style building.",Metro-Goldwyn Mayer,MGM/UA Entertainment Company,John Glen,Richard Maibaum,Roger Moore,Christopher Walken,Tanya Roberts,CA,San Francisco,POINT (-122.4192417 37.779275),5,2026-02-20T16:44:43.000,Tenderloin,-122.4192417,2026-02-20T16:37:46.000,37.779275
GirlBoss,2017,"The Castro Theater, 429 Castro St.",,"Hippolyta Productions, LLC",Netflix,"Jamie Babbit, Amanda Brotchie, Steven K. Tsuchida, Christian Ditter, John Riggi",Kay Cannon,Britt Robertson,Ellie Reed,Amanda Rea,CA,San Francisco,POINT (-122.4347365 37.7619917),8,2026-02-20T16:44:43.000,Castro/Upper Market,-122.4347365,2026-02-20T16:37:46.000,37.7619917
Beautiful Boy,2018,"Olympic Flame Café, 555 Geary St",,Big Indie Pictures,Amazon Studios,Felix van Groeningen,Luke Davies,Steve Carell,Timothee Chalamet,Maura Tierney,CA,San Francisco,POINT (-122.4123822 37.7867063),5,2026-02-20T16:44:43.000,Tenderloin,-122.4123822,2026-02-20T16:37:46.000,37.7867063
Always Be My Maybe,2019,Kearny btwn Columbus and Washington,,"Isla Productions, LLC",Netflix,Nahnatchka Khan,"Michael Golamco, Randall Park, Ali Wong",Ali Wong,Randall Park,Keanu Reeves,CA,San Francisco,POINT (-122.4055929 37.7972383),3,2026-02-20T16:44:43.000,North Beach,-122.4055929,2026-02-20T16:37:46.000,37.7972383
Nine Months,1995,60 Spear Street,,1492 Pictures,Twentieth Century Fox Film Corp.,Chris Columbus,Chris Columbus,Hugh Grant,Julianne Moore,Robin Williams,CA,San Francisco,POINT (-122.3946185 37.7926608),6,2026-02-20T16:44:43.000,Financial District/South Beach,-122.3946185,2026-02-20T16:37:46.000,37.7926608
Dawn of the Planet of the Apes,2014,University Club,,"Fox Louisiana Productions, LLC",Twentieth Century Fox,Matt Reeves,Rick Jaffa,Gary Oldman,Keri Russell,Andy Serkis,CA,San Francisco,POINT (-122.40915 37.7924361),3,2026-02-20T16:44:43.000,Chinatown,-122.40915,2026-02-20T16:37:46.000,37.7924361
DEVS,2020,Alameda at San Bruno Ave,,Minim Productions,FX Network,Alex Garland,Alex Garland,Sonoya Mizuno,Nick Offerman,Jin Ha,CA,San Francisco,POINT (-122.4058947 37.7684814),6,2026-02-20T16:44:43.000,Mission,-122.4058947,2026-02-20T16:37:46.000,37.7684814
Women is Losers,2020,Pop's Bar - 2800 24th St,,Look at the Moon Pictures,,Lissette Feliciano,Lissette Feliciano,Lorenza Izzo,Simu Liu,Liza Weil,CA,San Francisco,POINT (-122.4083202 37.7529581),9,2026-02-20T16:44:43.000,Mission,-122.4083202,2026-02-20T16:37:46.000,37.7529581
Sausalito,2000,The Castro,"From 1910-1920 the Castro was called ""Little Scandinavia"" because of its high concentration of residents of Scandinavian ancestry.",B.O.B and Partners,,Andrew Lau,,Maggie Cheung,Leon Lai,,CA,San Francisco,POINT (-122.435033 37.7608937),8,2026-02-20T16:44:43.000,Castro/Upper Market,-122.435033,2026-02-20T16:37:46.000,37.7608937
Chance- Season 1 ep110,2016,1901 Ocean Ave. at Ashton Ave.,,TVM Productions,HULU,Alexandra Cunningham and Kem Nunn,Michael Lehmann,Hugh Laurie,Gretchen Mol,Ethan Suplee,CA,San Francisco,POINT (-122.4624509 37.7251502),7,2026-02-20T16:44:43.000,West of Twin Peaks,-122.4624509,2026-02-20T16:37:46.000,37.7251502
Pushing Dead,2016,"Uva Enoteca, 568 Haight Street",,"Pushing Dead , LLC",TBD,Tom Brown,Tom Brown,Danny Glover,James Roday,Robin Weigert,CA,San Francisco,POINT (-122.431613 37.772235),5,2026-02-20T16:44:43.000,Hayes Valley,-122.431613,2026-02-20T16:37:46.000,37.772235
The Presidio,1988,Presidio (Golden Gate National Recreation Area),"In 1776, Spain made the Presidio a fortified area. The area was then given to Mexico, but then given to the US in 1848. The 1994 demilitarization of the area in 1994 marked the end of its 219 years of military use.",Paramount Pictures,Paramount Pictures,Peter Hyams,Larry Ferguson,Sean Connery,Mark Harmon,Meg Ryan,CA,San Francisco,POINT (-122.4810057 37.7923841),2,2026-02-20T16:44:43.000,Presidio,-122.4810057,2026-02-20T16:37:46.000,37.7923841
The Phone/Jexi,2019,Hyde btwn Jefferson and Broadway - Cable Car Line,,CBS Films Inc.,Lionsgate,"Jon Lucas, Scott Moore","Jon Lucas, Scott Moore",Adam Devine,Alexandra Shipp,Michael Pena,CA,San Francisco,POINT (-122.408346 37.7874795),3,2026-02-20T16:44:43.000,Tenderloin,-122.408346,2026-02-20T16:37:46.000,37.7874795
Star Trek VI: The Undiscovered Country,1991,Golden Gate Bridge,"With 23 miles of ladders and 300,000 rivets in each tower, the Golden Gate Bridge was the world's longest span when it opened in 1937.",Paramount Pictures,Paramount Pictures,Nicholas Meyer,Nimoy,William Shatner,Leonard Nimoy,George Takei,CA,San Francisco,POINT (-122.4785598 37.8199109),,2026-02-20T16:44:43.000,,-122.4785598,2026-02-20T16:37:46.000,37.8199109
Surface,2022,Vallejo Street between Jones and Vallejo Street Crest,,"Apple Studios, LLC",Apple TV+,"Sam Miller, Kevin Rodney Sullivan, Jennifer Morrison, Tucker Gates","Veronica West, Erica L. Anderson,Tony Saltzman, Glenise Mullins, Leigh Ann Biety, Dan Lee West, Leigh Ann Biety & Raven Jackson, Martín Zimmerman",Gugu Mbatha-Raw,Oliver Jackson-Cohen,Ari Graynor,CA,San Francisco,POINT (-122.4044008 37.7991483),3,2026-02-20T16:44:43.000,North Beach,-122.4044008,2026-02-20T16:37:46.000,37.7991483
The Last Thing He Told Me,2023,"Ferry Building, San Francisco",,20th Television,Apple TV+,"Olivia Newman, Deniz Gamze Ergüven, Daisy Von Scherler Mayer, Lila Neugebauer",Laura Dave,Jennifer Garner,Angourie Rice,Aisha Tyler,CA,San Francisco,POINT (-122.3936136 37.7954425),3,2026-02-20T16:44:43.000,Financial District/South Beach,-122.3936136,2026-02-20T16:37:46.000,37.7954425
Playing Mona Lisa,2000,Conservatory of Flowers (Golden Gate Park),"The Conservatory, unveiled in 1879, is the oldest public conservatory in the Western Hemisphere.",The Bubble Factory,Buena Vista Pictures,Matthew Huffman,Marni Freedman,Alicia Witt,Harvey Fierstein,,CA,San Francisco,POINT (-122.4602558 37.7726187),1,2026-02-20T16:44:43.000,Golden Gate Park,-122.4602558,2026-02-20T16:37:46.000,37.7726187
High Anxiety,1977,"Conservatory of Flowers, Golden Gate Park","The Conservatory, unveiled in 1879, is the oldest public conservatory in the Western Hemisphere.",Twentieth Century Fox Film Corporation,Twentieth Century Fox Film Corporation,Mel Brooks,Mel Brooks,Mel Brooks,Madeline Kahn,Cloris Leachman,CA,San Francisco,POINT (-122.4602558 37.7726187),1,2026-02-20T16:44:43.000,Golden Gate Park,-122.4602558,2026-02-20T16:37:46.000,37.7726187
Pushing Dead,2016,"Mission Neibhrohood Health Cetner, 240 Shotweel Street",,"Pushing Dead , LLC",TBD,Tom Brown,Tom Brown,Danny Glover,James Roday,Robin Weigert,CA,San Francisco,POINT (-122.4165737 37.7646229),9,2026-02-20T16:44:43.000,Mission,-122.4165737,2026-02-20T16:37:46.000,37.7646229
Shang-Chi and the Legend of the Ten Rings,2021,Jones between Post and California,,Freelance Restorations LLC,Disney/Marvel,Destin Daniel Cretton,"Dave Callaham, Destin Daniel Cretton, Andrew Lanham",Simu Liu,Tony Chiu-Wai Leung,Awkwafina,CA,San Francisco,POINT (-122.4134944 37.7878251),3,2026-02-20T16:44:43.000,Nob Hill,-122.4134944,2026-02-20T16:37:46.000,37.7878251
The Last Black Man in San Francisco,2019,415 Lyon St/355 Lyon St,,"LBMISF, LLC",A24,Joe Talbot,"Joe Talbot, Jimmie Fails, Rob Richert",Jimmie Fails,Jonathan Majors,Danny Glover,CA,San Francisco,POINT (-122.4431572 37.7748749),5,2026-02-20T16:44:43.000,Lone Mountain/USF,-122.4431572,2026-02-20T16:37:46.000,37.7748749
The Moon Is in Aquarius,2024,Beach St. at Polk St.,,TMIIAquarius Movie LLC,Deskpop Entertainment,Jesse Kuba,Jesse Kuba,Destiny Ekwueme,Gary Moore,Mia Jomor,CA,San Francisco,POINT (-122.4238283 37.8062338),2,2026-02-20T16:44:43.000,Russian Hill,-122.4238283,2026-02-20T16:37:46.000,37.8062338
DEVS,2020,Stevenson Alley btwn 6th and 7th St,,Minim Productions,FX Network,Alex Garland,Alex Garland,Sonoya Mizuno,Nick Offerman,Jin Ha,CA,San Francisco,POINT (-122.4038308 37.7735356),6,2026-02-20T16:44:43.000,South of Market,-122.4038308,2026-02-20T16:37:46.000,37.7735356
Magnum Force,1973,Vermont Street between 20th and 22nd Streets,,The Malpaso Company,Warner Bros. Pictures,Ted Post,John Milius,Clint Eastwood,Hal Holbrook,Mitchell Ryan,CA,San Francisco,POINT (-122.4038505 37.7592755),10,2026-02-20T16:44:43.000,Potrero Hill,-122.4038505,2026-02-20T16:37:46.000,37.7592755
The Presidio,1988,Coit Tower,"The Tower was funded by a gift bequeathed by Lillie Hitchcock Coit, a socialite who reportedly liked to chase fires. Though the tower resembles a firehose nozzle, it was not designed this way.",Paramount Pictures,Paramount Pictures,Peter Hyams,Larry Ferguson,Sean Connery,Mark Harmon,Meg Ryan,CA,San Francisco,POINT (-122.4058222 37.8023949),3,2026-02-20T16:44:43.000,North Beach,-122.4058222,2026-02-20T16:37:46.000,37.8023949
The Rock,1996,Alcatraz Island,Alcatraz Island was a military fort before it became a prison.,Hollywood Pictures,Buena Vista Pictures,Michael Bay,David Weisberg,Sean Connery,Nicolas Cage,,CA,San Francisco,POINT (-122.4230122 37.8266636),,2026-02-20T16:44:43.000,,-122.4230122,2026-02-20T16:37:46.000,37.8266636
Godzilla,2014,Kearney & Pine St.,,"Nautilus Productions, LLC",Warner Bros. Pictures,Gareth Edwards,Max Borenstein,Aaron Taylor-Johnson,Elizabeth Olsen,Bryan Cranston,CA,San Francisco,POINT (-122.4042565 37.7917052),3,2026-02-20T16:44:43.000,Financial District/South Beach,-122.4042565,2026-02-20T16:37:46.000,37.7917052
"Murder in the First, Season 1",2014,Ida B. Wells High School (1099 Hayes Street),"Ida B. Wells High School is named after the African-American journalist, suffragist and early leader in the Civil Rights Movement Ida B. Wells",Turner North Center Productions,Turner Network Television (TNT),Steven Bochcho,Eric Lodal,Taye Diggs,Kathleen Robertson,Ian Anthony Dale,CA,San Francisco,POINT (-122.4340242 37.7750608),5,2026-02-20T16:44:43.000,Hayes Valley,-122.4340242,2026-02-20T16:37:46.000,37.7750608
Chance Season 2,2017,Jefferson St at Taylor St,,TVM Productions Inc.,Hulu,Rozann Dawson,Alexandra Cunningham,Hugh Laurie,Greta Lee,Ethan Suplee,CA,San Francisco,POINT (-122.4157997 37.8082387),3,2026-02-20T16:44:43.000,North Beach,-122.4157997,2026-02-20T16:37:46.000,37.8082387
Women is Losers,2020,1080 Capp St,,Look at the Moon Pictures,,Lissette Feliciano,Lissette Feliciano,Lorenza Izzo,Simu Liu,Liza Weil,CA,San Francisco,POINT (-122.417322 37.7495114),9,2026-02-20T16:44:43.000,Mission,-122.417322,2026-02-20T16:37:46.000,37.7495114
Dirty Harry,1971,"California Hall (625 Polk Street, Van Ness/Civic Center)",,The Malpaso Company,Warner Brothers,Don Siegel,Harry Julian Fink,Clint Eastwood,Harry Guardino,,CA,San Francisco,POINT (-122.4193841 37.7824596),5,2026-02-20T16:44:43.000,Tenderloin,-122.4193841,2026-02-20T16:37:46.000,37.7824596
Vertigo,1958,York Hotel (940 Sutter Street),,Alfred J. Hitchcock Productions,Paramount Pictures,Alfred Hitchcock,Alec Coppel,James Stewart,Kim Novak,Barbara Bel Geddes,CA,San Francisco,POINT (-122.4159416 37.7885796),3,2026-02-20T16:44:43.000,Nob Hill,-122.4159416,2026-02-20T16:37:46.000,37.7885796
Ant-Man,2015,Broadway between Powell and Davis,Driving shots,"PYM Particles Productions, LLC",Walt Disney Studios Motion Pictures,Peyton Reed,Gabriel Ferrari,Michael Douglas,Paul Rudd,,CA,San Francisco,POINT (-122.4074424 37.7977897),3,2026-02-20T16:44:43.000,Chinatown,-122.4074424,2026-02-20T16:37:46.000,37.7977897
I’m A Virgo,2023,Columbus Avenue between Pacifiic and Jackson,,Bing Bang Productions Inc,Prime Video,Boots Riley,Boots Riley,Jharrel Jerome,Mike Epps,Carmen Ejogo,CA,San Francisco,POINT (-122.40567 37.79706),3,2026-02-20T16:44:43.000,Chinatown,-122.40567,2026-02-20T16:37:46.000,37.79706
Terminator - Genisys,2015,1 Market St. Landmark Building,,T5 Productions LLC,Paramount Pictures,Alan Taylor,James Cameron,Arnold Schwarzenegger,Jason Clarke,,CA,San Francisco,POINT (-122.3948203 37.7941767),6,2026-02-20T16:44:43.000,Financial District/South Beach,-122.3948203,2026-02-20T16:37:46.000,37.7941767
Summertime,2015,Broadway and Taylor St Intersection,,"Creative Monster Productions, Inc.",3 Distribution,Gabriele Muccino,Gabriele Muccino,Jessica Rothe,Scott Bakula,Matilda Anna Ingrid Lutz,CA,San Francisco,POINT (-122.41422 37.799743),3,2026-02-20T16:44:43.000,Russian Hill,-122.41422,2026-02-20T16:37:46.000,37.799743
Venom,2018,Grant Ave btwn California and Clay,,"L.O.Z. Productions, Inc.","Columbia Pictures, Sony Pictures Releasing",Ruben Fleischer,"Jeff Pinkner, Scott Rosenberg",Tom Hardy,Michelle Wiliams,Riz Ahmed,CA,San Francisco,POINT (-122.40602 37.79426),3,2026-02-20T16:44:43.000,Chinatown,-122.40602,2026-02-20T16:37:46.000,37.79426
Invasion of the Body Snatchers,1978,Chinatown,"First established in the mid-19th Century, SF's Chinatown is the oldest and largest Chinatown in the US.",Solofilm,United Artists,Philip Kaufman,Jack Finney,Donald Sutherland,Jeff Goldblum,Brooke Adams,CA,San Francisco,POINT (-122.4048082 37.7944675),3,2026-02-20T16:44:43.000,Chinatown,-122.4048082,2026-02-20T16:37:46.000,37.7944675
Looking,2014,The Stud,,"Mission Street Productions, LLC",Home Box Office (HBO),Andrew Haigh,Michael Lannan,Jonathan Groff,Frankie J. Alvarez,Murray Bartlett,CA,San Francisco,POINT (-122.4083567 37.7761825),6,2026-02-20T16:44:43.000,South of Market,-122.4083567,2026-02-20T16:37:46.000,37.7761825
Cherish,2002,387 Fair Oaks at 25th Street,,3 Ring Circus Films,Fine Line Features,Finn Taylor,Finn Taylor,Brad Hunt,Robin Tunney,,CA,San Francisco,POINT (-122.4236094 37.7506147),8,2026-02-20T16:44:43.000,Mission,-122.4236094,2026-02-20T16:37:46.000,37.7506147
The Dead Pool,1988,San Francisco Drydock (The Dogpatch),,Warner Bros. Pictures,Warner Bros. Pictures,Buddy Van Horn,Harry Julian Fink,Clint Eastwood,Liam Neeson,Patricia Clarkson,CA,San Francisco,POINT (-122.3866097 37.760628),10,2026-02-20T16:44:43.000,Potrero Hill,-122.3866097,2026-02-20T16:37:46.000,37.760628
So I Married an Axe Murderer,1993,Edinburgh Castle (950 Geary Street),,TriStar Pictures,TriStar Pictures,Thomas Schlamme,Robbie Fox,Mike Myers,Nancy Travis,,CA,San Francisco,POINT (-122.4189908 37.7862658),3,2026-02-20T16:44:43.000,Tenderloin,-122.4189908,2026-02-20T16:37:46.000,37.7862658
Chance- Season 1 ep103,2016,60 Leavenworth St.,,TVM Productions,HULU,Michael Lehmann,Kem Nunn,Hugh Laurie,Gretchen Mol,Ethan Suplee,CA,San Francisco,POINT (-122.4135414 37.7812278),5,2026-02-20T16:44:43.000,Tenderloin,-122.4135414,2026-02-20T16:37:46.000,37.7812278
Red Widow,2013,Geary & 27th Ave,,Beyond Pix,American Broadcasting Company (ABC),Alon Aranya,Melissa Rosenberg,Radha Mitchell,Sterling Beaumon,Clifton Collins Jr.,CA,San Francisco,POINT (-122.4868945 37.7799347),1,2026-02-20T16:44:43.000,Outer Richmond,-122.4868945,2026-02-20T16:37:46.000,37.7799347
DEVS,2020,Duboce Park,,Minim Productions,FX Network,Alex Garland,Alex Garland,Sonoya Mizuno,Nick Offerman,Jin Ha,CA,San Francisco,POINT (-122.433214 37.769551),8,2026-02-20T16:44:43.000,Haight Ashbury,-122.433214,2026-02-20T16:37:46.000,37.769551
Fearless,1993,Kohl Building (400 Montgomery Street),,Spring Creek Productions,Warner Bros. Pictures,Peter Weir,Rafael Yglesias,Jeff Bridges,Isabella Rosellini,Rosie Perez,CA,San Francisco,POINT (-122.402597 37.7931137),3,2026-02-20T16:44:43.000,Financial District/South Beach,-122.402597,2026-02-20T16:37:46.000,37.7931137
The Internship,2013,Players Arcade at Pier 39,,Twentieth Century Fox Film Corporation,Twentieth Century Fox Film Corporation,Shawn Levy,Vince Vaughn,Vince Vaughn,Owen Wilson,Rose Byrne,CA,San Francisco,POINT (-122.410476 37.811104),3,2026-02-20T16:44:43.000,North Beach,-122.410476,2026-02-20T16:37:46.000,37.811104
The Presidio,1988,Battery Street (The Embarcadero),,Paramount Pictures,Paramount Pictures,Peter Hyams,Larry Ferguson,Sean Connery,Mark Harmon,Meg Ryan,CA,San Francisco,POINT (-122.4008359 37.7974666),3,2026-02-20T16:44:43.000,Chinatown,-122.4008359,2026-02-20T16:37:46.000,37.7974666
Star Trek IV: The Voyage Home,1986,North Beach,,Paramount Pictures,Paramount Pictures,Leonard Nimoy,Steve Meerson,William Shatner,Leonard Nimoy,George Takei,CA,San Francisco,POINT (-122.4089071 37.7994612),3,2026-02-20T16:44:43.000,North Beach,-122.4089071,2026-02-20T16:37:46.000,37.7994612
Bullitt,1968,Kennedy Hotel (226 Embarcadero at Howard Street),Hotel was destroyed in the 1989 Loma Prieta earthquake. Corporate headquarters for the Gap reside at the location today.,Warner Brothers / Seven Arts Seven Arts,Warner Brothers,Peter Yates,Alan R. Trustman,Steve McQueen,Jacqueline Bisset,Robert Vaughn,CA,San Francisco,POINT (-122.3911158 37.7918167),6,2026-02-20T16:44:43.000,Financial District/South Beach,-122.3911158,2026-02-20T16:37:46.000,37.7918167
Sense8,2015,Market St. overpass,Bicycle chase scene,"Unpronounceable Productions, LLC",Netflix,The Wachowskis,The Wachowskis,Jamie Clayton,,,CA,San Francisco,POINT (-122.4212203 37.7735081),6,2026-02-20T16:44:43.000,Mission,-122.4212203,2026-02-20T16:37:46.000,37.7735081
Surface,2022,Harrison Street at 1st Street,,"Apple Studios, LLC",Apple TV+,"Sam Miller, Kevin Rodney Sullivan, Jennifer Morrison, Tucker Gates","Veronica West, Erica L. Anderson,Tony Saltzman, Glenise Mullins, Leigh Ann Biety, Dan Lee West, Leigh Ann Biety & Raven Jackson, Martín Zimmerman",Gugu Mbatha-Raw,Oliver Jackson-Cohen,Ari Graynor,CA,San Francisco,POINT (-122.3929881 37.7860548),6,2026-02-20T16:44:43.000,Financial District/South Beach,-122.3929881,2026-02-20T16:37:46.000,37.7860548
